[
  {
    "storeNumber": "900-549",
    "posNumber": "549",
    "storeType": "CCP",
    "street": "868 MURRAY RD",
    "city": "DOTHAN",
    "state": "AL",
    "zip": "36303",
    "lat": 31.257526,
    "lon": -85.403661,
    "manager": "Joe Hatton",
    "market": "Townsend Market",
    "uuid": "ee48dfff-9869-4f10-a476-fc5726b0c3ff"
  },
  {
    "storeNumber": "900-750",
    "posNumber": "750",
    "storeType": "LUMBER",
    "street": "868 MURRAY RD",
    "city": "DOTHAN",
    "state": "AL",
    "zip": "36303",
    "lat": 31.257526,
    "lon": -85.403661,
    "manager": "Shane Johnson",
    "market": "Townsend Market",
    "uuid": "4b4d89f9-5783-4374-88ac-ae9a1251f509"
  },
  {
    "storeNumber": "900-752",
    "posNumber": "752",
    "storeType": "LUMBER",
    "street": "533 BOLL WEEVIL CIRCLE",
    "city": "ENTERPRISE",
    "state": "AL",
    "zip": "36330",
    "lat": 31.313058,
    "lon": -85.830703,
    "manager": "Russell Lynch",
    "market": "Townsend Market",
    "uuid": "28618775-8e34-4b18-a7af-208a93b349c4"
  },
  {
    "storeNumber": "900-753",
    "posNumber": "753",
    "storeType": "LUMBER",
    "street": "1007 SOUTH BRUNDIDGE ST",
    "city": "TROY",
    "state": "AL",
    "zip": "36081",
    "lat": 31.795148,
    "lon": -85.966445,
    "manager": "Russell Lynch",
    "market": "Townsend Market",
    "uuid": "20a7b041-0e36-431e-8bad-33315a2d451b"
  },
  {
    "storeNumber": "0-0",
    "posNumber": "1897",
    "storeType": "TIMBER",
    "street": "618 WEST CENTRAL ST",
    "city": "WARREN",
    "state": "AR",
    "zip": "71671",
    "lat": 33.610037,
    "lon": -92.075229,
    "manager": "Gary Saunders",
    "market": "Non-Sales",
    "uuid": "fa5e5f94-2951-4f96-b721-ba58a3fb5e62"
  },
  {
    "storeNumber": "900-755",
    "posNumber": "755",
    "storeType": "LUMBER",
    "street": "1520 HIGHWAY 90 WEST",
    "city": "CHIPLEY",
    "state": "FL",
    "zip": "32428",
    "lat": 30.776226,
    "lon": -85.558957,
    "manager": "Michael Hazard",
    "market": "Townsend Market",
    "uuid": "61745f90-1892-499e-8b5f-6d063bf39ea3"
  },
  {
    "storeNumber": "900-751",
    "posNumber": "751",
    "storeType": "LUMBER",
    "street": "3710 HIGHWAY 231N",
    "city": "PANAMA CITY",
    "state": "FL",
    "zip": "32404",
    "lat": 30.215292,
    "lon": -85.603667,
    "manager": "Daniel Turner",
    "market": "Townsend Market",
    "uuid": "aa4c16c7-25ec-4183-9ee4-821484559734"
  },
  {
    "storeNumber": "900-459",
    "posNumber": "459",
    "storeType": "LUMBER",
    "street": "800 15TH ST",
    "city": "COLUMBUS",
    "state": "GA",
    "zip": "31901",
    "lat": 32.47397,
    "lon": -84.98141,
    "manager": "Dylan Fessler",
    "market": "Mid Georgia Market",
    "uuid": "5d08182c-85d5-42f6-94c0-67978d4abc98"
  },
  {
    "storeNumber": "0-0",
    "posNumber": "578",
    "storeType": "RELOAD",
    "street": "298 TEMPLE AVE.  NS DELV SDG B25",
    "city": "NEWNAN",
    "state": "GA",
    "zip": "30263",
    "lat": 33.389964,
    "lon": -84.822245,
    "manager": "",
    "market": "Reloads",
    "uuid": "e4fb5c0a-9763-4ddf-a4fb-8059202ff471"
  },
  {
    "storeNumber": "900-451",
    "posNumber": "539",
    "storeType": "CCP",
    "street": "4220 WEST WHITE RD",
    "city": "OAKWOOD",
    "state": "GA",
    "zip": "30566",
    "lat": 34.212962,
    "lon": -83.899649,
    "manager": "",
    "market": "Atlanta Market",
    "uuid": "6996c511-a79e-41b6-88bd-44725cf90df9"
  },
  {
    "storeNumber": "900-453",
    "posNumber": "453",
    "storeType": "LUMBER",
    "street": "3365 FLORENCE RD",
    "city": "POWDER SPRINGS",
    "state": "GA",
    "zip": "30127",
    "lat": 33.872544,
    "lon": -84.700557,
    "manager": "Cody Townes",
    "market": "Atlanta Market",
    "uuid": "d532e3e8-e0cc-48cc-a063-89d3a065c6d4"
  },
  {
    "storeNumber": "900-456",
    "posNumber": "456",
    "storeType": "DIRECT SHIP",
    "street": "24 JOE KENNEDY BLVD",
    "city": "STATESBORO",
    "state": "GA",
    "zip": "30458",
    "lat": 32.39411,
    "lon": -81.81425,
    "manager": "Ben Blaxton",
    "market": "Atlanta Market",
    "uuid": "44599c7a-44dd-4222-917d-81f90ad119dc"
  },
  {
    "storeNumber": "0-0",
    "posNumber": "582",
    "storeType": "RELOAD",
    "street": "472 EAGLES LANDING PARKWAY",
    "city": "STOCKBRIDGE",
    "state": "GA",
    "zip": "",
    "lat": 33.516541,
    "lon": -84.208471,
    "manager": "",
    "market": "Atlanta Market",
    "uuid": "8be4108a-54b2-484a-887f-2bb3edc695b4"
  },
  {
    "storeNumber": "900-452",
    "posNumber": "452",
    "storeType": "LUMBER",
    "street": "472 EAGLES LANDING PARKWAY",
    "city": "STOCKBRIDGE",
    "state": "GA",
    "zip": "30281",
    "lat": 33.516541,
    "lon": -84.208471,
    "manager": "Wade Wood",
    "market": "Atlanta Market",
    "uuid": "2e700ad7-081d-4e1a-8e9d-6ee78c0ed818"
  },
  {
    "storeNumber": "900-455",
    "posNumber": "455",
    "storeType": "DOOR SHOP",
    "street": "472 EAGLES LANDING PARKWAY",
    "city": "STOCKBRIDGE",
    "state": "GA",
    "zip": "30281",
    "lat": 33.516541,
    "lon": -84.208471,
    "manager": "Tyler Massie",
    "market": "Atlanta Market",
    "uuid": "cdc6d678-df8b-42de-87f4-c60cada0de86"
  },
  {
    "storeNumber": "0-0",
    "posNumber": "713",
    "storeType": "RELOAD",
    "street": "1159 HOG MOUNTAIN RD",
    "city": "WINDER",
    "state": "GA",
    "zip": "30680",
    "lat": 41.101491,
    "lon": -81.371148,
    "manager": "",
    "market": "District Cost Center",
    "uuid": "2a998e42-a13f-4b60-8dee-0c3e516be7cb"
  },
  {
    "storeNumber": "900-457",
    "posNumber": "457",
    "storeType": "KITCHEN AND BATH",
    "street": "1159 HOG MOUNTAIN RD",
    "city": "WINDER",
    "state": "GA",
    "zip": "30680",
    "lat": 33.953577,
    "lon": -83.655658,
    "manager": "Adam Schuman",
    "market": "Atlanta Market",
    "uuid": "e7b127f0-be08-4843-9402-6504c7ba9051"
  },
  {
    "storeNumber": "900-450",
    "posNumber": "450",
    "storeType": "LUMBER",
    "street": "1159 HOG MOUNTAIN RD",
    "city": "WINDER",
    "state": "GA",
    "zip": "30680",
    "lat": 33.953577,
    "lon": -83.655658,
    "manager": "Chris Burnett",
    "market": "Atlanta Market",
    "uuid": "90cf61ad-6aee-40db-84a8-734fe32a4876"
  },
  {
    "storeNumber": "900-454",
    "posNumber": "454",
    "storeType": "HUB",
    "street": "1159 HOG MOUNTAIN RD",
    "city": "WINDER",
    "state": "GA",
    "zip": "30680",
    "lat": 33.953577,
    "lon": -83.655658,
    "manager": "Chris Burnett",
    "market": "Atlanta Market",
    "uuid": "2dc83d4d-a2d0-48a9-8f4a-6150b1052316"
  },
  {
    "storeNumber": "900-597",
    "posNumber": "597",
    "storeType": "EWP",
    "street": "1159 HOG MOUNTAIN RD",
    "city": "WINDER",
    "state": "GA",
    "zip": "30680",
    "lat": 33.953577,
    "lon": -83.655658,
    "manager": "",
    "market": "Atlanta Market",
    "uuid": "dbe93ef6-f4f5-4157-a8ba-c0a9331935f0"
  },
  {
    "storeNumber": "0-0",
    "posNumber": "585",
    "storeType": "RELOAD",
    "street": "5521 OAK GROVE RD",
    "city": "EVANSVILLE",
    "state": "IN",
    "zip": "47715",
    "lat": 37.991697,
    "lon": -87.48451,
    "manager": "",
    "market": "Kight Home Center",
    "uuid": "2cc43712-9e0b-43fe-868d-8c8ce58aaadb"
  },
  {
    "storeNumber": "0-0",
    "posNumber": "1604",
    "storeType": "RELOAD",
    "street": "5521 OAK GROVE RD",
    "city": "EVANSVILLE",
    "state": "IN",
    "zip": "47715",
    "lat": 37.991697,
    "lon": -87.48451,
    "manager": "",
    "market": "Kight Home Center",
    "uuid": "36fddfae-e09b-4f42-af45-3f1f59a8fcc8"
  },
  {
    "storeNumber": "305-1",
    "posNumber": "492",
    "storeType": "LUMBER",
    "street": "5521 OAK GROVE RD",
    "city": "EVANSVILLE",
    "state": "IN",
    "zip": "47715",
    "lat": 37.991697,
    "lon": -87.48451,
    "manager": "Justin Nelson",
    "market": "Kight Home Center",
    "uuid": "5fc8a26d-1e82-490b-ad5e-91eb89679184"
  },
  {
    "storeNumber": "305-5",
    "posNumber": "493",
    "storeType": "KITCHEN AND BATH",
    "street": "5800 E VIRGINIA ST",
    "city": "EVANSVILLE",
    "state": "IN",
    "zip": "47715",
    "lat": 37.981407,
    "lon": -87.47978,
    "manager": "David Vannarsdall",
    "market": "Kight Home Center",
    "uuid": "44888639-3e8d-41f7-9e2a-31d6ae58e92f"
  },
  {
    "storeNumber": "0-0",
    "posNumber": "1492",
    "storeType": "INSTALLED",
    "street": "5521 OAK GROVE RD",
    "city": "EVANSVILLE",
    "state": "IN",
    "zip": "47715",
    "lat": 37.991697,
    "lon": -87.48451,
    "manager": "Corey Taylor",
    "market": "Kight Home Center",
    "uuid": "0bce41b2-c5fb-4be1-ae6d-2c65d985e4f7"
  },
  {
    "storeNumber": "14-26",
    "posNumber": "281",
    "storeType": "LUMBER",
    "street": "6630 LINCOLN HWY EAST",
    "city": "FORT WAYNE",
    "state": "IN",
    "zip": "46803",
    "lat": 41.069389,
    "lon": -85.054108,
    "manager": "Luke Hughes",
    "market": "Fort Wayne Market",
    "uuid": "1358d2b4-e54a-466c-a967-2f44bceafb29"
  },
  {
    "storeNumber": "310-0",
    "posNumber": "576",
    "storeType": "EWP",
    "street": "2901 N MORTON ST",
    "city": "FRANKLIN",
    "state": "IN",
    "zip": "46131",
    "lat": 39.515538,
    "lon": -86.073371,
    "manager": "Jeff Davidson",
    "market": "Indianapolis Market",
    "uuid": "1171936a-c333-40ff-8602-55f0dbb0098a"
  },
  {
    "storeNumber": "0-0",
    "posNumber": "1680",
    "storeType": "KITCHEN AND BATH",
    "street": "2901 N MORTON ST",
    "city": "FRANKLIN",
    "state": "IN",
    "zip": "46131",
    "lat": 39.515538,
    "lon": -86.073371,
    "manager": "Ian Brown",
    "market": "Indianapolis Market",
    "uuid": "510464c6-f63b-43ad-9212-fca5b672a95e"
  },
  {
    "storeNumber": "0-0",
    "posNumber": "1681",
    "storeType": "DOOR SHOP",
    "street": "2901 N MORTON ST",
    "city": "FRANKLIN",
    "state": "IN",
    "zip": "46131",
    "lat": 39.515538,
    "lon": -86.073371,
    "manager": "Ian Brown",
    "market": "Indianapolis Market",
    "uuid": "d5850520-55f2-4502-9925-199ef5f8bc0c"
  },
  {
    "storeNumber": "310-40",
    "posNumber": "359",
    "storeType": "LUMBER",
    "street": "2901 N MORTON ST",
    "city": "FRANKLIN",
    "state": "IN",
    "zip": "46131",
    "lat": 39.515538,
    "lon": -86.073371,
    "manager": "Shane Ashton",
    "market": "Indianapolis Market",
    "uuid": "3c7f8759-a1df-4d28-a0b8-6d90f0bee1d9"
  },
  {
    "storeNumber": "310-41",
    "posNumber": "360",
    "storeType": "DOOR SHOP",
    "street": "2901 N MORTON ST",
    "city": "FRANKLIN",
    "state": "IN",
    "zip": "46131",
    "lat": 39.515538,
    "lon": -86.073371,
    "manager": "Jeff Davidson",
    "market": "Indianapolis Market",
    "uuid": "52435105-37b7-4b49-8ac9-e92ccb3f1338"
  },
  {
    "storeNumber": "310-2",
    "posNumber": "533",
    "storeType": "CCP",
    "street": "2901 N MORTON ST",
    "city": "FRANKLIN",
    "state": "IN",
    "zip": "46131",
    "lat": 39.515538,
    "lon": -86.073371,
    "manager": "Jeff Davidson",
    "market": "Indianapolis Market",
    "uuid": "81ca4895-e17e-4f58-91b7-4a54dfceb0d9"
  },
  {
    "storeNumber": "915-28",
    "posNumber": "277",
    "storeType": "LUMBER",
    "street": "3520 S WESTERN AVE",
    "city": "MARION",
    "state": "IN",
    "zip": "46953",
    "lat": 40.527137,
    "lon": -85.675061,
    "manager": "Tim Petty",
    "market": "Central Indiana Market",
    "uuid": "31a5fd68-3129-4bd5-ba37-856fe78b4d0d"
  },
  {
    "storeNumber": "28-1",
    "posNumber": "338",
    "storeType": "LUMBER",
    "street": "4900 NORTH OLD STATE ROAD 3",
    "city": "MUNCIE",
    "state": "IN",
    "zip": "47303",
    "lat": 40.233552,
    "lon": -85.367965,
    "manager": "Gregory Barnard",
    "market": "Indianapolis Market",
    "uuid": "08ae73c5-8089-4c88-be6e-301858193d55"
  },
  {
    "storeNumber": "32-12",
    "posNumber": "352",
    "storeType": "LUMBER",
    "street": "2107 WESTFIELD RD",
    "city": "NOBLESVILLE",
    "state": "IN",
    "zip": "46062",
    "lat": 40.043336,
    "lon": -86.054041,
    "manager": "",
    "market": "Indianapolis Market",
    "uuid": "4f3aa295-7a99-4e45-8c79-ce731b3185fa"
  },
  {
    "storeNumber": "17-23",
    "posNumber": "274",
    "storeType": "LUMBER",
    "street": "1400 MARKLEY DR",
    "city": "PLYMOUTH",
    "state": "IN",
    "zip": "46563",
    "lat": 41.359751,
    "lon": -86.324607,
    "manager": "Matt Lombard",
    "market": "Central Indiana Market",
    "uuid": "b58b0613-f4e9-4833-9e80-bdfe263d4052"
  },
  {
    "storeNumber": "70-35",
    "posNumber": "344",
    "storeType": "LUMBER",
    "street": "3783 CHESTER BLVD",
    "city": "RICHMOND",
    "state": "IN",
    "zip": "47374",
    "lat": 39.881424,
    "lon": -84.883651,
    "manager": "Tony Jefferson",
    "market": "Central Indiana Market",
    "uuid": "debdc480-889e-4fe8-9a38-1188abc55d0c"
  },
  {
    "storeNumber": "6-17",
    "posNumber": "272",
    "storeType": "LUMBER",
    "street": "10475 W US HWY 6",
    "city": "WESTVILLE",
    "state": "IN",
    "zip": "46391",
    "lat": 41.538599,
    "lon": -86.904645,
    "manager": "Phil White",
    "market": "Central Indiana Market",
    "uuid": "f75d2785-0db5-4e08-8165-0ba37eee719f"
  },
  {
    "storeNumber": "0-0",
    "posNumber": "536",
    "storeType": "CCP",
    "street": "106 COSMA DRIVE",
    "city": "BOWLING GREEN",
    "state": "KY",
    "zip": "42101",
    "lat": 37.03306,
    "lon": -86.3184,
    "manager": "Spencer Jenkins",
    "market": "Nashville Market",
    "uuid": "2e45d279-1d0d-4271-ba19-c3e4b32f8bb8"
  },
  {
    "storeNumber": "0-0",
    "posNumber": "409",
    "storeType": "DOOR SHOP",
    "street": "106 COSMA DRIVE",
    "city": "BOWLING GREEN",
    "state": "KY",
    "zip": "42101",
    "lat": 37.03306,
    "lon": -86.3184,
    "manager": "Spencer Jenkins",
    "market": "Nashville Market",
    "uuid": "2173cafc-e64a-4540-813c-844ac5d6307e"
  },
  {
    "storeNumber": "0-0",
    "posNumber": "415",
    "storeType": "KITCHEN AND BATH",
    "street": "2475 SCOTTSVILLE RD",
    "city": "BOWLING GREEN",
    "state": "KY",
    "zip": "42104",
    "lat": 36.95224,
    "lon": -86.429102,
    "manager": "Marc Huther",
    "market": "Bowling Green Market",
    "uuid": "6cfd9880-27d9-4a13-b297-21dd169301ea"
  },
  {
    "storeNumber": "31-1",
    "posNumber": "410",
    "storeType": "LUMBER",
    "street": "3975 LOUISVILLE RD",
    "city": "BOWLING GREEN",
    "state": "KY",
    "zip": "42101",
    "lat": 37.012453,
    "lon": -86.379698,
    "manager": "Salem Lockhart",
    "market": "Bowling Green Market",
    "uuid": "6c68c2f7-a092-4822-8161-73c8bd1ed0bd"
  },
  {
    "storeNumber": "25-2",
    "posNumber": "190",
    "storeType": "LUMBER",
    "street": "10060 DIXIE HWY",
    "city": "FLORENCE",
    "state": "KY",
    "zip": "41042",
    "lat": 38.955545,
    "lon": -84.618917,
    "manager": "Brayden Trattles",
    "market": "Cincinnati-Dayton Market",
    "uuid": "1c98ebb8-d16a-4c7e-8001-aac4a4613e0a"
  },
  {
    "storeNumber": "0-0",
    "posNumber": "723",
    "storeType": "RELOAD",
    "street": "202 NORTH CHEROKEE TRACE BLVD",
    "city": "HOPKINSVILLE",
    "state": "KY",
    "zip": "42240",
    "lat": 36.84757,
    "lon": -87.45972,
    "manager": "",
    "market": "Clarksville Market",
    "uuid": "95e35806-5f3a-4d1e-b1a1-97f8495e204e"
  },
  {
    "storeNumber": "0-0",
    "posNumber": "704",
    "storeType": "RELOAD",
    "street": "1806 E 9TH ST",
    "city": "HOPKINSVILLE",
    "state": "KY",
    "zip": "42240",
    "lat": 36.849131,
    "lon": -87.467437,
    "manager": "",
    "market": "Clarksville Market",
    "uuid": "0bd407dc-5494-423e-ac6c-0def1db8c38f"
  },
  {
    "storeNumber": "6841-7",
    "posNumber": "414",
    "storeType": "LUMBER",
    "street": "1806 E 9TH ST",
    "city": "HOPKINSVILLE",
    "state": "KY",
    "zip": "42240",
    "lat": 36.849131,
    "lon": -87.467437,
    "manager": "Scott Entsminger",
    "market": "Clarksville Market",
    "uuid": "4b7457f0-16d5-4893-ac09-aee9105fceb9"
  },
  {
    "storeNumber": "500-407",
    "posNumber": "407",
    "storeType": "KITCHEN AND BATH",
    "street": "2680 E KY-146",
    "city": "LA GRANGE",
    "state": "KY",
    "zip": "40031",
    "lat": 38.42003,
    "lon": -85.346691,
    "manager": "Brady Pfaadt",
    "market": "Louisville (KY)",
    "uuid": "ae41683d-cf5a-4b95-8bd8-704599af547e"
  },
  {
    "storeNumber": "0-0",
    "posNumber": "406",
    "storeType": "LUMBER",
    "street": "2680 E KY-146",
    "city": "LA GRANGE",
    "state": "KY",
    "zip": "40031",
    "lat": 38.42003,
    "lon": -85.346691,
    "manager": "Brady Pfaadt",
    "market": "Louisville (KY)",
    "uuid": "f644b1b7-bbc1-44f5-adc7-bac8f67caf9f"
  },
  {
    "storeNumber": "0-0",
    "posNumber": "405",
    "storeType": "CCM",
    "street": "4265 PRODUCE RD",
    "city": "LOUISVILLE",
    "state": "KY",
    "zip": "40218",
    "lat": 38.186554,
    "lon": -85.679756,
    "manager": "Brady Pfaadt",
    "market": "Louisville (KY)",
    "uuid": "19732fb4-40b0-407c-9a74-ac4facfdffaa"
  },
  {
    "storeNumber": "0-0",
    "posNumber": "416",
    "storeType": "KITCHEN AND BATH",
    "street": "2301 WIND HAVEN DRIVE",
    "city": "OWENSBORO",
    "state": "KY",
    "zip": "42303",
    "lat": 37.7648,
    "lon": -87.08048,
    "manager": "Marc Huther",
    "market": "Owensboro Market",
    "uuid": "d39cdf17-509a-4031-9082-80225085a6f4"
  },
  {
    "storeNumber": "305-4",
    "posNumber": "498",
    "storeType": "LUMBER",
    "street": "2301 WIND HAVEN DRIVE",
    "city": "OWENSBORO",
    "state": "KY",
    "zip": "42303",
    "lat": 37.7648,
    "lon": -87.08048,
    "manager": "Brett Williamson",
    "market": "Owensboro Market",
    "uuid": "79235e03-3a91-4811-b146-bf1d50c109ac"
  },
  {
    "storeNumber": "0-0",
    "posNumber": "708",
    "storeType": "RELOAD",
    "street": "1103 N 8TH STREET",
    "city": "PADUCAH",
    "state": "KY",
    "zip": "42001",
    "lat": 37.09301,
    "lon": -88.61134,
    "manager": "",
    "market": "Reloads",
    "uuid": "2f09de5e-2846-49d8-a045-28e92cc76a65"
  },
  {
    "storeNumber": "85-2",
    "posNumber": "463",
    "storeType": "LUMBER",
    "street": "7101 GEOFFREY WAY",
    "city": "FREDERICK",
    "state": "MD",
    "zip": "21704",
    "lat": 39.3538,
    "lon": -77.4191,
    "manager": "Ralph Dennis",
    "market": "BWE Market",
    "uuid": "1074b210-5247-4593-a2d6-b5232689cf53"
  },
  {
    "storeNumber": "8168-0",
    "posNumber": "542",
    "storeType": "CCP",
    "street": "1743 DUAL HIGHWAY",
    "city": "HAGERSTOWN",
    "state": "MD",
    "zip": "21740",
    "lat": 39.612224,
    "lon": -77.693443,
    "manager": "Bobby Doberer",
    "market": "Mid Atlantic Truss (MD)",
    "uuid": "eddb8b44-74e9-460f-8a96-1782d2f9ccbc"
  },
  {
    "storeNumber": "0-0",
    "posNumber": "465",
    "storeType": "LUMBER",
    "street": "6 PENINSULA DRIVE",
    "city": "NORTH EAST",
    "state": "MD",
    "zip": "21901",
    "lat": 39.62067,
    "lon": -75.95425,
    "manager": "Ken Martin",
    "market": "New Jersey Market",
    "uuid": "0a30e3de-59c5-4aef-a854-56ba5ae48524"
  },
  {
    "storeNumber": "0-0",
    "posNumber": "700",
    "storeType": "EWP",
    "street": "6 PENINSULA DRIVE",
    "city": "NORTH EAST",
    "state": "MD",
    "zip": "21901",
    "lat": 39.62067,
    "lon": -75.95425,
    "manager": "Ken Martin",
    "market": "New Jersey Market",
    "uuid": "ecc6a87f-ae95-4f93-9a22-43d32357ca1c"
  },
  {
    "storeNumber": "8168-0",
    "posNumber": "556",
    "storeType": "EWP",
    "street": "10120 GOVERNOR LANE BLVD",
    "city": "WILLIAMSPORT",
    "state": "MD",
    "zip": "21795",
    "lat": 39.5924,
    "lon": -77.80839,
    "manager": "Ralph Dennis",
    "market": "BWE Market",
    "uuid": "1e868442-fa6d-488b-9f4b-457cad8c9458"
  },
  {
    "storeNumber": "223-7",
    "posNumber": "135",
    "storeType": "LUMBER",
    "street": "1990 E US 223",
    "city": "ADRIAN",
    "state": "MI",
    "zip": "49221",
    "lat": 41.875204,
    "lon": -84.024243,
    "manager": "Pat Easter",
    "market": "Toledo Market",
    "uuid": "de1efda7-db51-4a07-ac12-8cca6a8171f9"
  },
  {
    "storeNumber": "89-31",
    "posNumber": "259",
    "storeType": "LUMBER",
    "street": "1151 LINCOLN RD",
    "city": "ALLEGAN",
    "state": "MI",
    "zip": "49010",
    "lat": 42.531,
    "lon": -85.869,
    "manager": "Jeff Kaylor",
    "market": "West Michigan Market",
    "uuid": "fd99a1e9-73c8-4599-b6ee-758b6c10f1a6"
  },
  {
    "storeNumber": "121-12",
    "posNumber": "236",
    "storeType": "LUMBER",
    "street": "3178 E BRISTOL RD",
    "city": "BURTON",
    "state": "MI",
    "zip": "48529",
    "lat": 42.974717,
    "lon": -83.646659,
    "manager": "Michael Gustafson",
    "market": "Flint Market",
    "uuid": "5463cd18-eed2-467e-a409-4915c945a7d4"
  },
  {
    "storeNumber": "810-39",
    "posNumber": "247",
    "storeType": "LUMBER",
    "street": "1250 CARTER DRIVE",
    "city": "CARO",
    "state": "MI",
    "zip": "48723",
    "lat": 43.474524,
    "lon": -83.41787,
    "manager": "Jayson Mays",
    "market": "Flint Market",
    "uuid": "7005aa1c-d8bb-4232-a13f-7c2433b1c2d5"
  },
  {
    "storeNumber": "0-0",
    "posNumber": "1685",
    "storeType": "KITCHEN AND BATH",
    "street": "5317 ALPINE AVE",
    "city": "COMSTOCK PARK",
    "state": "MI",
    "zip": "49321",
    "lat": 43.05996,
    "lon": -85.69095,
    "manager": "Curtiss Beach",
    "market": "West Michigan Market",
    "uuid": "87702dc8-3f02-4c92-a2d7-7c841ed082a0"
  },
  {
    "storeNumber": "37-3",
    "posNumber": "255",
    "storeType": "LUMBER",
    "street": "7474 ALPINE AVE",
    "city": "COMSTOCK PARK",
    "state": "MI",
    "zip": "49321",
    "lat": 43.099469,
    "lon": -85.68717,
    "manager": "Curtiss Beach",
    "market": "West Michigan Market",
    "uuid": "38169bd6-91d1-45dc-af94-40d9f3567011"
  },
  {
    "storeNumber": "0-0",
    "posNumber": "552",
    "storeType": "RELOAD",
    "street": "",
    "city": "DETROIT",
    "state": "MI",
    "zip": "48234",
    "lat": 42.44052,
    "lon": -83.01408,
    "manager": "",
    "market": "Reloads",
    "uuid": "bfb8b912-b0fb-4ee1-b536-6f1a26fd23bf"
  },
  {
    "storeNumber": "0-0",
    "posNumber": "336",
    "storeType": "KITCHEN AND BATH",
    "street": "6189 PIERSON RD",
    "city": "FLUSHING",
    "state": "MI",
    "zip": "48433",
    "lat": 43.05995,
    "lon": -83.79996,
    "manager": "Jamie Richmond",
    "market": "Flint Market",
    "uuid": "aea8b8c1-c50c-4d8b-aa80-b4ae0b1eb8ef"
  },
  {
    "storeNumber": "0-0",
    "posNumber": "337",
    "storeType": "RELOAD",
    "street": "6189 PIERSON RD",
    "city": "FLUSHING",
    "state": "MI",
    "zip": "48433",
    "lat": 43.05995,
    "lon": -83.79996,
    "manager": "",
    "market": "Flint Market",
    "uuid": "918dfd1f-a165-47eb-b148-87089e86ec74"
  },
  {
    "storeNumber": "43-21",
    "posNumber": "260",
    "storeType": "LUMBER",
    "street": "6216 GULL RD (M-43)",
    "city": "KALAMAZOO",
    "state": "MI",
    "zip": "49048",
    "lat": 42.33,
    "lon": -85.51,
    "manager": "Todd Ernst",
    "market": "West Michigan Market",
    "uuid": "b110f779-f153-4fd5-a22f-012886e3f5a9"
  },
  {
    "storeNumber": "0-0",
    "posNumber": "266",
    "storeType": "LUMBER",
    "street": "3750 US 131 NE",
    "city": "KALKASKA",
    "state": "MI",
    "zip": "49646",
    "lat": 44.76957,
    "lon": -85.16038,
    "manager": "Dean Easter",
    "market": "West Michigan Market",
    "uuid": "efe142e5-a66c-4ab9-9eee-6270d90f0251"
  },
  {
    "storeNumber": "0-0",
    "posNumber": "228",
    "storeType": "WINDOW SHOP",
    "street": "16700 S US 27",
    "city": "LANSING",
    "state": "MI",
    "zip": "48906",
    "lat": 42.774046,
    "lon": -84.543614,
    "manager": "Bailey Jackson",
    "market": "Lansing - Windows",
    "uuid": "926272e1-7bb3-45ed-b471-f3db3ea95b19"
  },
  {
    "storeNumber": "27-0",
    "posNumber": "577",
    "storeType": "EWP",
    "street": "16700 S US 27",
    "city": "LANSING",
    "state": "MI",
    "zip": "48906",
    "lat": 42.774046,
    "lon": -84.543614,
    "manager": "Jon Korn",
    "market": "Michigan Manufacturing",
    "uuid": "db0a054b-b43f-46b8-b842-56f239c568b9"
  },
  {
    "storeNumber": "0-0",
    "posNumber": "229",
    "storeType": "DOOR SHOP",
    "street": "1155 MAK-TECH DRIVE",
    "city": "LANSING",
    "state": "MI",
    "zip": "48906",
    "lat": 42.775596,
    "lon": -84.546554,
    "manager": "Lance Eldridge",
    "market": "Lansing Door Shop",
    "uuid": "ea55f859-2ce5-4575-8e73-894f0fb15275"
  },
  {
    "storeNumber": "27-17",
    "posNumber": "541",
    "storeType": "CCP",
    "street": "16700 S US 27",
    "city": "LANSING",
    "state": "MI",
    "zip": "48906",
    "lat": 42.774046,
    "lon": -84.543614,
    "manager": "Adam Fritz",
    "market": "Michigan Manufacturing",
    "uuid": "b8603a1a-cdb8-4538-882d-0c0142ff9a1b"
  },
  {
    "storeNumber": "27-17",
    "posNumber": "239",
    "storeType": "LUMBER",
    "street": "16700 S US 27",
    "city": "LANSING",
    "state": "MI",
    "zip": "48906",
    "lat": 42.774046,
    "lon": -84.543614,
    "manager": "Terry Wooley",
    "market": "West Michigan Market",
    "uuid": "4b3ded18-9674-43b9-86b3-5d63a7ad7121"
  },
  {
    "storeNumber": "1031-34",
    "posNumber": "251",
    "storeType": "LUMBER",
    "street": "2323 WEST US HWY 10",
    "city": "LUDINGTON",
    "state": "MI",
    "zip": "49431",
    "lat": 43.954954,
    "lon": -86.337857,
    "manager": "Kim Wild",
    "market": "West Michigan Market",
    "uuid": "4cdb148e-cf01-4a52-a90d-39f2deed2ed5"
  },
  {
    "storeNumber": "0-0",
    "posNumber": "249",
    "storeType": "DOOR SHOP",
    "street": "46401 ERB DR",
    "city": "MACOMB",
    "state": "MI",
    "zip": "48042",
    "lat": 42.640746,
    "lon": -82.859725,
    "manager": "Steven Bell",
    "market": "Detroit Market",
    "uuid": "0190a01d-6359-4b3e-9bfc-c27ba83a1a3b"
  },
  {
    "storeNumber": "0-0",
    "posNumber": "1682",
    "storeType": "DOOR SHOP",
    "street": "46401 ERB DR",
    "city": "MACOMB",
    "state": "MI",
    "zip": "48042",
    "lat": 42.640746,
    "lon": -82.859725,
    "manager": "Steven Bell",
    "market": "Detroit Market",
    "uuid": "b8769044-bf73-4837-92f6-85360d2f8c0b"
  },
  {
    "storeNumber": "530-0",
    "posNumber": "559",
    "storeType": "EWP",
    "street": "46401 ERB DRIVE",
    "city": "MACOMB",
    "state": "MI",
    "zip": "48042",
    "lat": 42.640746,
    "lon": -82.859725,
    "manager": "Steven Bell",
    "market": "Detroit Market",
    "uuid": "f2a6a29e-faf6-4006-99c5-4e5c3c118161"
  },
  {
    "storeNumber": "0-0",
    "posNumber": "227",
    "storeType": "KITCHEN AND BATH",
    "street": "46301 ERB DRIVE",
    "city": "MACOMB",
    "state": "MI",
    "zip": "48042",
    "lat": 42.640746,
    "lon": -82.859725,
    "manager": "Steven Bell",
    "market": "Detroit Kitchen & Bath",
    "uuid": "0ea45a56-8331-40ed-888a-69371fde3987"
  },
  {
    "storeNumber": "530-40",
    "posNumber": "248",
    "storeType": "LUMBER",
    "street": "46401 ERB DRIVE",
    "city": "MACOMB",
    "state": "MI",
    "zip": "48042",
    "lat": 42.640746,
    "lon": -82.859725,
    "manager": "Steven Bell",
    "market": "Detroit Market",
    "uuid": "26ea869b-3078-4291-b30f-dbfa319d5458"
  },
  {
    "storeNumber": "50-5",
    "posNumber": "123",
    "storeType": "LUMBER",
    "street": "850 DIXIE N",
    "city": "MONROE",
    "state": "MI",
    "zip": "48162",
    "lat": 41.9232,
    "lon": -83.373862,
    "manager": "Taryn Young",
    "market": "Toledo Market",
    "uuid": "221b26e1-0508-4267-aae5-9081744d7582"
  },
  {
    "storeNumber": "46-15",
    "posNumber": "242",
    "storeType": "LUMBER",
    "street": "8500 GRATIOT RD",
    "city": "SAGINAW",
    "state": "MI",
    "zip": "48609",
    "lat": 43.417113,
    "lon": -84.082471,
    "manager": "Bruce Fenskie",
    "market": "Saginaw (MI)",
    "uuid": "222708db-4313-46f6-82c9-b080840a499c"
  },
  {
    "storeNumber": "0-0",
    "posNumber": "233",
    "storeType": "LUMBER",
    "street": "6600 HIGHLAND RD",
    "city": "WHITE LAKE",
    "state": "MI",
    "zip": "48383",
    "lat": 42.647048,
    "lon": -83.5243,
    "manager": "Steven Bell",
    "market": "Detroit Market",
    "uuid": "da0bdb66-1675-408e-834d-c9467ab61d3e"
  },
  {
    "storeNumber": "59-20",
    "posNumber": "232",
    "storeType": "LUMBER",
    "street": "6600 HIGHLAND RD",
    "city": "WHITE LAKE",
    "state": "MI",
    "zip": "48383",
    "lat": 42.647048,
    "lon": -83.5243,
    "manager": "Steven Bell",
    "market": "Detroit Market",
    "uuid": "c1d6ad40-5d86-4ca5-812f-d3ffe010e8f0"
  },
  {
    "storeNumber": "275-22",
    "posNumber": "230",
    "storeType": "LUMBER",
    "street": "2800 E MICHIGAN AVE",
    "city": "YPSILANTI",
    "state": "MI",
    "zip": "48198",
    "lat": 42.250959,
    "lon": -83.556352,
    "manager": "Steven Bell",
    "market": "Detroit Market",
    "uuid": "69cf9f28-bd78-4e86-b9a5-3a409060c267"
  },
  {
    "storeNumber": "605-4",
    "posNumber": "481",
    "storeType": "LUMBER",
    "street": "47371 BUXTON BACK RD",
    "city": "BUXTON",
    "state": "NC",
    "zip": "27920",
    "lat": 35.263623,
    "lon": -75.53546,
    "manager": "Dee James",
    "market": "Outer Banks Market",
    "uuid": "0a14f9bb-01f4-49af-b7ce-098abede5c60"
  },
  {
    "storeNumber": "0-0",
    "posNumber": "581",
    "storeType": "RELOAD",
    "street": "",
    "city": "CHARLOTTE",
    "state": "NC",
    "zip": "",
    "lat": 35.13009,
    "lon": -80.94885,
    "manager": "Martin Munson",
    "market": "Charlotte/Triad Market",
    "uuid": "54987bfc-9a50-4a89-b22b-4728349bd453"
  },
  {
    "storeNumber": "424-0",
    "posNumber": "586",
    "storeType": "EWP",
    "street": "4401 PETE BROWN RD",
    "city": "CHARLOTTE",
    "state": "NC",
    "zip": "28269",
    "lat": 35.321407,
    "lon": -80.827118,
    "manager": "Brian Turner",
    "market": "Charlotte/Triad Market",
    "uuid": "4f10943a-dfc0-4f40-996d-a459624f52dd"
  },
  {
    "storeNumber": "0-0",
    "posNumber": "1621",
    "storeType": "KITCHEN AND BATH",
    "street": "7010 SMITH CORNERS BLVD SUITE A",
    "city": "CHARLOTTE",
    "state": "NC",
    "zip": "28269",
    "lat": 35.350154,
    "lon": -80.842932,
    "manager": "",
    "market": "Charlotte/Triad Market",
    "uuid": "c516e5b7-3b4d-487b-9f13-5009364e1519"
  },
  {
    "storeNumber": "0-0",
    "posNumber": "561",
    "storeType": "RELOAD",
    "street": "4401 PETE BROWN RD",
    "city": "CHARLOTTE",
    "state": "NC",
    "zip": "28269",
    "lat": 35.321407,
    "lon": -80.827118,
    "manager": "Jordan Smithers",
    "market": "Charlotte/Triad Market",
    "uuid": "7f3a3403-753e-4c1b-a440-c5b55a8dde3d"
  },
  {
    "storeNumber": "0-0",
    "posNumber": "206",
    "storeType": "KITCHEN AND BATH",
    "street": "2601 WESTINGHOUSE BLVD",
    "city": "CHARLOTTE",
    "state": "NC",
    "zip": "28273",
    "lat": 35.130509,
    "lon": -80.948861,
    "manager": "",
    "market": "Charlotte/Triad Market",
    "uuid": "fcafc0d9-e75a-40e8-8a34-36e99f28426c"
  },
  {
    "storeNumber": "601-418",
    "posNumber": "418",
    "storeType": "LUMBER",
    "street": "7135 LOGISTICS CENTER DRIVE",
    "city": "CHARLOTTE",
    "state": "NC",
    "zip": "28273",
    "lat": 35.130488,
    "lon": -80.948818,
    "manager": "Martin Munson",
    "market": "Charlotte/Triad Market",
    "uuid": "e901a547-256a-487b-9b80-66f71a7c3822"
  },
  {
    "storeNumber": "601-424",
    "posNumber": "424",
    "storeType": "LUMBER",
    "street": "4401 PETE BROWN RD",
    "city": "CHARLOTTE",
    "state": "NC",
    "zip": "28269",
    "lat": 35.321407,
    "lon": -80.827118,
    "manager": "Rob Layton",
    "market": "Charlotte/Triad Market",
    "uuid": "9218ce01-5a3b-45aa-adfb-9725b0f4964e"
  },
  {
    "storeNumber": "601-424",
    "posNumber": "428",
    "storeType": "LUMBER",
    "street": "7010 SMITH CORNERS BLVD SUITE A",
    "city": "CHARLOTTE",
    "state": "NC",
    "zip": "28269",
    "lat": 35.350154,
    "lon": -80.842932,
    "manager": "Randi Sento",
    "market": "Charlotte/Triad Market",
    "uuid": "4724d330-4b69-4dd5-981c-694efc5523da"
  },
  {
    "storeNumber": "601-427",
    "posNumber": "427",
    "storeType": "DOOR SHOP",
    "street": "2601 WESTINGHOUSE BLVD",
    "city": "CHARLOTTE",
    "state": "NC",
    "zip": "28273",
    "lat": 35.130509,
    "lon": -80.948861,
    "manager": "Martin Munson",
    "market": "Charlotte/Triad Market",
    "uuid": "29bd5716-7d6b-4d50-8d6a-0e1df2969994"
  },
  {
    "storeNumber": "605-3",
    "posNumber": "482",
    "storeType": "LUMBER",
    "street": "109 IMPACT BLVD",
    "city": "ELIZABETH CITY",
    "state": "NC",
    "zip": "27909",
    "lat": 36.26163,
    "lon": -76.30495,
    "manager": "Michael Gandy",
    "market": "Outer Banks Market",
    "uuid": "cfc84081-5313-4a67-8ad8-1625b8044c94"
  },
  {
    "storeNumber": "601-540",
    "posNumber": "540",
    "storeType": "CCP",
    "street": "747 OLD HARGRAVE RD",
    "city": "LEXINGTON",
    "state": "NC",
    "zip": "27295",
    "lat": 35.786507,
    "lon": -80.30977,
    "manager": "",
    "market": "Charlotte/Triad Market",
    "uuid": "48676c44-1db8-4400-bc52-bf350fd60041"
  },
  {
    "storeNumber": "605-1",
    "posNumber": "480",
    "storeType": "LUMBER",
    "street": "8917 CARATOKE HIGHWAY",
    "city": "POINT HARBOR",
    "state": "NC",
    "zip": "27964",
    "lat": 36.09115,
    "lon": -75.80522,
    "manager": "Michael Gandy",
    "market": "Outer Banks Market",
    "uuid": "12d344cc-d424-4389-b35b-3076f555ea33"
  },
  {
    "storeNumber": "900-770",
    "posNumber": "770",
    "storeType": "LUMBER",
    "street": "877 OZONE DR",
    "city": "SALUDA",
    "state": "NC",
    "zip": "28773",
    "lat": 35.24419,
    "lon": -82.32997,
    "manager": "Jamey Sias",
    "market": "Greenville Market",
    "uuid": "3d0ba4b7-6025-4f27-9900-648e0c28cb3b"
  },
  {
    "storeNumber": "0-0",
    "posNumber": "543",
    "storeType": "CCP",
    "street": "298 HARVEY FAULK RD",
    "city": "SANFORD",
    "state": "NC",
    "zip": "27332",
    "lat": 35.435219,
    "lon": -79.129202,
    "manager": "",
    "market": "Raleigh Market",
    "uuid": "49e165c7-e770-4530-80e3-4f497fbfb89f"
  },
  {
    "storeNumber": "605-6",
    "posNumber": "485",
    "storeType": "LUMBER",
    "street": "298 HARVEY FAULK RD",
    "city": "SANFORD",
    "state": "NC",
    "zip": "27332",
    "lat": 35.435219,
    "lon": -79.129202,
    "manager": "",
    "market": "Raleigh Market",
    "uuid": "321e4e5b-5adc-4774-953d-01311f37370b"
  },
  {
    "storeNumber": "0-0",
    "posNumber": "580",
    "storeType": "RELOAD",
    "street": "9376 OLD US HWY 52",
    "city": "WELCOME",
    "state": "NC",
    "zip": "27374",
    "lat": 35.945389,
    "lon": -80.222157,
    "manager": "Jordan Smithers",
    "market": "Charlotte/Triad Market",
    "uuid": "70fcda81-a235-4cfd-8978-223009414ab0"
  },
  {
    "storeNumber": "601-419",
    "posNumber": "419",
    "storeType": "LUMBER",
    "street": "9376 OLD US HWY 52",
    "city": "WELCOME",
    "state": "NC",
    "zip": "27374",
    "lat": 35.945389,
    "lon": -80.222157,
    "manager": "Ryan Williams",
    "market": "Triad Market",
    "uuid": "e6ed834f-3e36-41a9-997d-974f483958f8"
  },
  {
    "storeNumber": "201-393",
    "posNumber": "393",
    "storeType": "LUMBER",
    "street": "731 CUTHBERT BLVD",
    "city": "CHERRY HILL",
    "state": "NJ",
    "zip": "8002",
    "lat": 39.93183,
    "lon": -75.05518,
    "manager": "Wesley Stinson Jr",
    "market": "New Jersey Market",
    "uuid": "a282799d-74f5-4d13-876a-89adec12b832"
  },
  {
    "storeNumber": "0-0",
    "posNumber": "548",
    "storeType": "CCP",
    "street": "102 NJ-73S",
    "city": "HAMMONTON",
    "state": "NJ",
    "zip": "8037",
    "lat": 39.70513,
    "lon": -74.89515,
    "manager": "Chris Pitts",
    "market": "New Jersey Market",
    "uuid": "35553f94-5fc7-4d94-95f2-ec9f5e57b9f0"
  },
  {
    "storeNumber": "201-390",
    "posNumber": "390",
    "storeType": "LUMBER",
    "street": "102 NJ-73 S",
    "city": "HAMMONTON",
    "state": "NJ",
    "zip": "8037",
    "lat": 39.70513,
    "lon": -74.89515,
    "manager": "Brandin Decker",
    "market": "New Jersey Market",
    "uuid": "d4f4090e-3a76-404a-a85d-8b7f7a013510"
  },
  {
    "storeNumber": "201-391",
    "posNumber": "391",
    "storeType": "LUMBER",
    "street": "148 RT 70 EAST",
    "city": "MEDFORD",
    "state": "NJ",
    "zip": "8055",
    "lat": 39.89999,
    "lon": -74.83849,
    "manager": "Robert Cleary",
    "market": "New Jersey Market",
    "uuid": "81ce409c-3eaa-4448-8371-074ad92f678f"
  },
  {
    "storeNumber": "201-395",
    "posNumber": "395",
    "storeType": "DOOR SHOP",
    "street": "148 RT 70 EAST",
    "city": "MEDFORD",
    "state": "NJ",
    "zip": "8055",
    "lat": 39.89999,
    "lon": -74.83849,
    "manager": "Doug Watson",
    "market": "New Jersey Market",
    "uuid": "95b7996f-5833-4c03-a0da-17dbeeb9c467"
  },
  {
    "storeNumber": "0-0",
    "posNumber": "706",
    "storeType": "EWP",
    "street": "1601 EDEN RD",
    "city": "MILLVILLE",
    "state": "NJ",
    "zip": "8332",
    "lat": 39.37981,
    "lon": -75.014992,
    "manager": "Erik Prock",
    "market": "New Jersey Market",
    "uuid": "2e01c153-c9a1-4882-b469-d9ef8f10054f"
  },
  {
    "storeNumber": "201-396",
    "posNumber": "396",
    "storeType": "HUB",
    "street": "1601 EDEN RD",
    "city": "MILLVILLE",
    "state": "NJ",
    "zip": "8332",
    "lat": 39.37981,
    "lon": -75.014992,
    "manager": "",
    "market": "New Jersey Market",
    "uuid": "4d43cec6-1982-484b-9a98-87cef326441e"
  },
  {
    "storeNumber": "201-544",
    "posNumber": "544",
    "storeType": "CCP",
    "street": "1601 EDEN RD",
    "city": "MILLVILLE",
    "state": "NJ",
    "zip": "8332",
    "lat": 39.37981,
    "lon": -75.014992,
    "manager": "Matt Householder",
    "market": "New Jersey Market",
    "uuid": "a4814085-5f1a-464f-99a2-9cf09d60ac7e"
  },
  {
    "storeNumber": "201-392",
    "posNumber": "392",
    "storeType": "LUMBER",
    "street": "111 DEVINS LANE",
    "city": "PLEASANTVILLE",
    "state": "NJ",
    "zip": "8232",
    "lat": 39.39549,
    "lon": -74.54066,
    "manager": "Luis Arocho",
    "market": "New Jersey Market",
    "uuid": "5b7ff098-f971-4ebf-b9e9-ad5dafbcb3b1"
  },
  {
    "storeNumber": "201-394",
    "posNumber": "394",
    "storeType": "LUMBER",
    "street": "270 NORTH ORCHARD RD",
    "city": "VINELAND",
    "state": "NJ",
    "zip": "8360",
    "lat": 39.49139,
    "lon": -75.05274,
    "manager": "Bill Sutter",
    "market": "New Jersey Market",
    "uuid": "80f26b14-eda8-438d-b9ba-d2ba28205493"
  },
  {
    "storeNumber": "0-0",
    "posNumber": "119",
    "storeType": "CLEARANCE",
    "street": "3779 MANCHESTER RD",
    "city": "AKRON",
    "state": "OH",
    "zip": "44319",
    "lat": 40.996384,
    "lon": -81.556758,
    "manager": "Dave Lentz",
    "market": "Clearance Center",
    "uuid": "43b08e6d-e4e3-4acc-8a18-4e093accfd94"
  },
  {
    "storeNumber": "499-0",
    "posNumber": "583",
    "storeType": "EWP",
    "street": "172 NORTH CASE AVE",
    "city": "AKRON",
    "state": "OH",
    "zip": "44305",
    "lat": 41.07384,
    "lon": -81.48316,
    "manager": "",
    "market": "Northeast Ohio Market",
    "uuid": "c4e9c017-3022-436e-8b2f-7336bd420853"
  },
  {
    "storeNumber": "1-1",
    "posNumber": "499",
    "storeType": "LUMBER",
    "street": "172 NORTH CASE AVE",
    "city": "AKRON",
    "state": "OH",
    "zip": "44305",
    "lat": 41.07384,
    "lon": -81.48316,
    "manager": "Shane Bolon",
    "market": "Northeast Ohio Market",
    "uuid": "477c9613-c377-470a-9791-5c4f9b4a74c2"
  },
  {
    "storeNumber": "261-1",
    "posNumber": "54",
    "storeType": "HUB",
    "street": "1763 WADSWORTH RD",
    "city": "AKRON",
    "state": "OH",
    "zip": "44320",
    "lat": 41.05883,
    "lon": -81.59356,
    "manager": "Russ Murphy",
    "market": "Northeast Ohio Market",
    "uuid": "25ab6f4a-1901-42c0-be0a-a77f6d6e04df"
  },
  {
    "storeNumber": "0-0",
    "posNumber": "531",
    "storeType": "CCP",
    "street": "172 NORTH CASE AVE",
    "city": "AKRON",
    "state": "OH",
    "zip": "44305",
    "lat": 41.07384,
    "lon": -81.48316,
    "manager": "Russ Murphy",
    "market": "Northeast Ohio Market",
    "uuid": "45a63149-0d59-4dea-a4cf-8deba2489fd1"
  },
  {
    "storeNumber": "62-72",
    "posNumber": "74",
    "storeType": "LUMBER",
    "street": "23611 SR 62",
    "city": "ALLIANCE",
    "state": "OH",
    "zip": "44601",
    "lat": 40.900701,
    "lon": -81.056614,
    "manager": "Brendon Simmons",
    "market": "Alliance-Louisville Market",
    "uuid": "e8baff5c-52f4-400f-bdb6-736f45a18a6b"
  },
  {
    "storeNumber": "0-0",
    "posNumber": "710",
    "storeType": "RELOAD",
    "street": "2938 STATE ROUTE 752",
    "city": "ASHVILLE",
    "state": "OH",
    "zip": "43103",
    "lat": 39.723729,
    "lon": -82.963681,
    "manager": "",
    "market": "Columbus Market",
    "uuid": "696c2f7b-1f87-4ec7-a503-8918ac17c475"
  },
  {
    "storeNumber": "101-175",
    "posNumber": "175",
    "storeType": "LUMBER",
    "street": "2938 STATE ROUTE 752",
    "city": "ASHVILLE",
    "state": "OH",
    "zip": "43103",
    "lat": 39.723729,
    "lon": -82.963681,
    "manager": "Mike Broderick",
    "market": "Columbus Market",
    "uuid": "fbdb705a-6bfc-4a5d-9edd-79d3b0d5bbef"
  },
  {
    "storeNumber": "50-53",
    "posNumber": "155",
    "storeType": "LUMBER",
    "street": "5330 HEBBARDSVILLE RD",
    "city": "ATHENS",
    "state": "OH",
    "zip": "45701",
    "lat": 39.277501,
    "lon": -82.153178,
    "manager": "James Pennington (JP)",
    "market": "Athens-Nelsonville Market",
    "uuid": "4dbc3c1c-b82d-43c3-be75-39183f95e6b8"
  },
  {
    "storeNumber": "32-39",
    "posNumber": "191",
    "storeType": "LUMBER",
    "street": "2600 OLD STATE ROUTE 32",
    "city": "BATAVIA",
    "state": "OH",
    "zip": "45103",
    "lat": 39.066433,
    "lon": -84.1185,
    "manager": "Bob Hamblen",
    "market": "Cincinnati-Dayton Market",
    "uuid": "d4885dfc-20ce-4da6-8184-62dcf2ad351e"
  },
  {
    "storeNumber": "675-56",
    "posNumber": "193",
    "storeType": "LUMBER",
    "street": "1312 GRANGE HALL RD",
    "city": "BEAVERCREEK",
    "state": "OH",
    "zip": "45430",
    "lat": 39.728283,
    "lon": -84.083547,
    "manager": "Josh Gross",
    "market": "Cincinnati-Dayton Market",
    "uuid": "c3c5d8db-1bb3-49d8-a490-2deabc9fdbc7"
  },
  {
    "storeNumber": "25-0",
    "posNumber": "558",
    "storeType": "EWP",
    "street": "12859 KRAMER RD",
    "city": "BOWLING GREEN",
    "state": "OH",
    "zip": "43402",
    "lat": 41.341107,
    "lon": -83.64657,
    "manager": "Jon Korn",
    "market": "Toledo Market",
    "uuid": "67ac5329-8922-44c5-a6a8-bf020b552467"
  },
  {
    "storeNumber": "25-31",
    "posNumber": "126",
    "storeType": "LUMBER",
    "street": "12859 KRAMER RD",
    "city": "BOWLING GREEN",
    "state": "OH",
    "zip": "43402",
    "lat": 41.341107,
    "lon": -83.64657,
    "manager": "Kevin Stoots",
    "market": "Toledo Market",
    "uuid": "fb892198-425a-4927-a0d1-077776e597c4"
  },
  {
    "storeNumber": "209-24",
    "posNumber": "150",
    "storeType": "LUMBER",
    "street": "60696 SOUTHGATE RD",
    "city": "BYESVILLE",
    "state": "OH",
    "zip": "43723",
    "lat": 39.982429,
    "lon": -81.555894,
    "manager": "Kyle Moyer",
    "market": "Zanesville Market",
    "uuid": "dddc2006-1089-4cc9-89d9-fe6ae6aaf831"
  },
  {
    "storeNumber": "0-0",
    "posNumber": "53",
    "storeType": "HUB",
    "street": "567 ELM RIDGE AVE",
    "city": "CANAL FULTON",
    "state": "OH",
    "zip": "44614",
    "lat": 40.88446,
    "lon": -81.56453,
    "manager": "",
    "market": "Northeast Ohio Market",
    "uuid": "fb3505c4-5d61-4cc9-80f0-0271958e16a3"
  },
  {
    "storeNumber": "0-3",
    "posNumber": "297",
    "storeType": "LUMBER",
    "street": "1532 PERRY DRIVE SW",
    "city": "CANTON",
    "state": "OH",
    "zip": "44710",
    "lat": 40.785629,
    "lon": -81.446227,
    "manager": "Greg Barnes",
    "market": "Northeast Ohio Market",
    "uuid": "f081bf35-b650-45e2-9183-bc086c78abf6"
  },
  {
    "storeNumber": "0-3",
    "posNumber": "497",
    "storeType": "LUMBER",
    "street": "1532 PERRY DRIVE SW",
    "city": "CANTON",
    "state": "OH",
    "zip": "44710",
    "lat": 40.785629,
    "lon": -81.446227,
    "manager": "Greg Barnes",
    "market": "Northeast Ohio Market",
    "uuid": "2a7bda7b-6c4a-4f01-b891-bda3edeeadc6"
  },
  {
    "storeNumber": "28-67",
    "posNumber": "180",
    "storeType": "LUMBER",
    "street": "2800 WESTERN AVE",
    "city": "CHILLICOTHE",
    "state": "OH",
    "zip": "45601",
    "lat": 39.348258,
    "lon": -83.042506,
    "manager": "Tyler Hettinger",
    "market": "Chillicothe-Piketon Market",
    "uuid": "db166b4b-45d4-41e6-a2fd-cd61c0e6fee3"
  },
  {
    "storeNumber": "65-8",
    "posNumber": "214",
    "storeType": "LUMBER",
    "street": "9300 OTTAWA RD",
    "city": "COLUMBUS GROVE",
    "state": "OH",
    "zip": "45830",
    "lat": 40.873159,
    "lon": -84.072318,
    "manager": "Don Malone",
    "market": "Toledo Market",
    "uuid": "818af55a-5ba9-4884-a875-2ca39dfabecf"
  },
  {
    "storeNumber": "305-27",
    "posNumber": "100",
    "storeType": "LUMBER",
    "street": "2167 ELM RD NE",
    "city": "CORTLAND",
    "state": "OH",
    "zip": "44410",
    "lat": 41.277577,
    "lon": -80.775824,
    "manager": "AJ Baltes",
    "market": "Youngstown Market",
    "uuid": "828a978d-e865-4151-8cb9-23dafed00922"
  },
  {
    "storeNumber": "39-6",
    "posNumber": "77",
    "storeType": "LUMBER",
    "street": "1047 N TUSCARAWAS AVE",
    "city": "DOVER",
    "state": "OH",
    "zip": "44622",
    "lat": 40.52724,
    "lon": -81.489782,
    "manager": "Ben Stephens",
    "market": "East Central Ohio Market",
    "uuid": "f6537235-01f4-4d6b-9db7-8a43df053b82"
  },
  {
    "storeNumber": "301-26",
    "posNumber": "143",
    "storeType": "LUMBER",
    "street": "41625 GRISWOLD RD",
    "city": "ELYRIA",
    "state": "OH",
    "zip": "44035",
    "lat": 41.399888,
    "lon": -82.128968,
    "manager": "Chris Collins",
    "market": "Northeast Ohio Market",
    "uuid": "84e5480a-97dc-487b-b3b3-b9dd3ce0b8e4"
  },
  {
    "storeNumber": "0-0",
    "posNumber": "600",
    "storeType": "OFFICE",
    "street": "601 TALLMADGE RD",
    "city": "KENT",
    "state": "OH",
    "zip": "44240",
    "lat": 41.101491,
    "lon": -81.371148,
    "manager": "",
    "market": "Non-Sales",
    "uuid": "0fc42381-607a-47bf-a7c4-2b6e08108b2d"
  },
  {
    "storeNumber": "0-0",
    "posNumber": "701",
    "storeType": "RELOAD",
    "street": "2455 SOUTH FONTAINE ST",
    "city": "KENTON",
    "state": "OH",
    "zip": "43226",
    "lat": 40.617396,
    "lon": -83.625115,
    "manager": "",
    "market": "Reloads",
    "uuid": "74c8745d-a091-4ed0-8f7d-747948527d2b"
  },
  {
    "storeNumber": "33-28",
    "posNumber": "160",
    "storeType": "LUMBER",
    "street": "1890 LOGAN-LANCASTER RD",
    "city": "LANCASTER",
    "state": "OH",
    "zip": "43130",
    "lat": 39.696328,
    "lon": -82.584878,
    "manager": "Matt Callicoat",
    "market": "Columbus Market",
    "uuid": "8f2cdb0f-fb2f-400c-b847-6fb5479e1351"
  },
  {
    "storeNumber": "45-22",
    "posNumber": "71",
    "storeType": "LUMBER",
    "street": "704 E LINCOLN WAY",
    "city": "LISBON",
    "state": "OH",
    "zip": "44432",
    "lat": 40.771919,
    "lon": -80.757179,
    "manager": "Sean Balint",
    "market": "Alliance-Louisville Market",
    "uuid": "36d9b40c-76c1-4501-920a-349fe51f2cfc"
  },
  {
    "storeNumber": "44-21",
    "posNumber": "72",
    "storeType": "LUMBER",
    "street": "720 N CHAPEL ST",
    "city": "LOUISVILLE",
    "state": "OH",
    "zip": "44641",
    "lat": 40.841888,
    "lon": -81.25939,
    "manager": "Timothy Young",
    "market": "Alliance-Louisville Market",
    "uuid": "7c8cea06-0750-42a8-8c12-37634938b862"
  },
  {
    "storeNumber": "528-70",
    "posNumber": "68",
    "storeType": "LUMBER",
    "street": "6320 N RIDGE RD",
    "city": "MADISON",
    "state": "OH",
    "zip": "44057",
    "lat": 41.803097,
    "lon": -81.061928,
    "manager": "Shawn Steigner",
    "market": "Madison (OH)",
    "uuid": "5067dd66-7c82-4e2b-8c90-118f35bf5ea2"
  },
  {
    "storeNumber": "0-0",
    "posNumber": "179",
    "storeType": "DOOR SHOP",
    "street": "1242 READING RD",
    "city": "MASON",
    "state": "OH",
    "zip": "45040",
    "lat": 39.3343,
    "lon": -84.3445,
    "manager": "Matthew Hubbard",
    "market": "Cincinnati-Dayton Market",
    "uuid": "09d7148b-da5a-4bc6-b1dd-d7ee47ddf3c2"
  },
  {
    "storeNumber": "7142-98",
    "posNumber": "199",
    "storeType": "LUMBER",
    "street": "1242 READING RD",
    "city": "MASON",
    "state": "OH",
    "zip": "45040",
    "lat": 39.3343,
    "lon": -84.3445,
    "manager": "Ron King",
    "market": "Cincinnati-Dayton Market",
    "uuid": "f632597b-c9aa-49a1-9af8-63c1c9110e1d"
  },
  {
    "storeNumber": "7142-0",
    "posNumber": "537",
    "storeType": "CCP",
    "street": "1242 READING RD",
    "city": "MASON",
    "state": "OH",
    "zip": "45040",
    "lat": 39.3343,
    "lon": -84.3445,
    "manager": "Rich Flores",
    "market": "Cincinnati-Dayton Market",
    "uuid": "f71e4f79-ec33-4563-83e2-6033cb0c6509"
  },
  {
    "storeNumber": "0-0",
    "posNumber": "159",
    "storeType": "KITCHEN AND BATH",
    "street": "3725 MEDINA RD",
    "city": "MEDINA",
    "state": "OH",
    "zip": "44256",
    "lat": 41.137737,
    "lon": -81.821043,
    "manager": "Russ Murphy",
    "market": "Northeast Ohio Market",
    "uuid": "867830c4-e6c7-498b-be15-6c7d74fa2977"
  },
  {
    "storeNumber": "87-79",
    "posNumber": "70",
    "storeType": "LUMBER",
    "street": "14601 KINSMAN RD",
    "city": "MIDDLEFIELD",
    "state": "OH",
    "zip": "44062",
    "lat": 41.462448,
    "lon": -81.120151,
    "manager": "Lenny Barcikoski",
    "market": "Middlefield (OH)",
    "uuid": "e8dea968-78a2-4ae9-9407-361a4db57bd4"
  },
  {
    "storeNumber": "0-0",
    "posNumber": "594",
    "storeType": "EWP",
    "street": "",
    "city": "MILLBURY",
    "state": "OH",
    "zip": "43447",
    "lat": 41.561,
    "lon": -83.453,
    "manager": "Jon Korn",
    "market": "Michigan Manufacturing",
    "uuid": "beace786-95bd-4592-ac90-16f3eaa39463"
  },
  {
    "storeNumber": "0-0",
    "posNumber": "598",
    "storeType": "RELOAD",
    "street": "3521 MOLINE-MARTIN RD",
    "city": "MILLBURY",
    "state": "OH",
    "zip": "43447",
    "lat": 41.561,
    "lon": -83.449,
    "manager": "",
    "market": "Toledo Market",
    "uuid": "91644cf0-af6a-4671-9d43-1e93615bdf39"
  },
  {
    "storeNumber": "795-1",
    "posNumber": "532",
    "storeType": "CCP",
    "street": "3520 MOLINE MARTIN RD",
    "city": "MILLBURY",
    "state": "OH",
    "zip": "43447",
    "lat": 41.561,
    "lon": -83.453,
    "manager": "Jason Thompson",
    "market": "Michigan Manufacturing",
    "uuid": "d3ab3c3d-158f-43d9-aad4-39e9fcba54c4"
  },
  {
    "storeNumber": "100-889",
    "posNumber": "889",
    "storeType": "CCM",
    "street": "6000 STATE ROUTE 39",
    "city": "MILLERSBURG",
    "state": "OH",
    "zip": "44654",
    "lat": 40.55345,
    "lon": -81.83876,
    "manager": "",
    "market": "Carter Custom Millwork",
    "uuid": "e7264199-42f4-432c-ae85-da591cbe8569"
  },
  {
    "storeNumber": "0-1",
    "posNumber": "495",
    "storeType": "LUMBER",
    "street": "6139 SR 39",
    "city": "MILLERSBURG",
    "state": "OH",
    "zip": "44654",
    "lat": 40.553248,
    "lon": -81.843419,
    "manager": "Dan Troyer",
    "market": "East Central Ohio Market",
    "uuid": "9bf9815e-62fe-498e-88fd-469d7154ab25"
  },
  {
    "storeNumber": "0-6",
    "posNumber": "489",
    "storeType": "CCM",
    "street": "5158 TR 353 (TOWNSHIP RD)",
    "city": "MILLERSBURG",
    "state": "OH",
    "zip": "44654",
    "lat": 40.551694,
    "lon": -81.838583,
    "manager": "",
    "market": "Carter Custom Millwork",
    "uuid": "9dd7b9f3-2645-4816-a576-4f3c8ed6aac0"
  },
  {
    "storeNumber": "532-3",
    "posNumber": "51",
    "storeType": "LUMBER",
    "street": "38 N CLEVELAND AVE",
    "city": "MOGADORE",
    "state": "OH",
    "zip": "44260",
    "lat": 41.05246,
    "lon": -81.395265,
    "manager": "Derik Francis",
    "market": "Portage Market",
    "uuid": "481aa404-f10f-41bf-8ee5-2b304bd56bc1"
  },
  {
    "storeNumber": "100-177",
    "posNumber": "177",
    "storeType": "LUMBER",
    "street": "351 APPLE STREET",
    "city": "MOUNT ORAB",
    "state": "OH",
    "zip": "45154",
    "lat": 39.03251,
    "lon": -83.91298,
    "manager": "",
    "market": "Cincinnati-Dayton Market",
    "uuid": "ed1c42d2-2167-4d76-991e-8982c672a01b"
  },
  {
    "storeNumber": "100-178",
    "posNumber": "178",
    "storeType": "LUMBER",
    "street": "351 APPLE STREET",
    "city": "MOUNT ORAB",
    "state": "OH",
    "zip": "45154",
    "lat": 39.03251,
    "lon": -83.91298,
    "manager": "Bob Hamblen",
    "market": "Cincinnati-Dayton Market",
    "uuid": "ee44a456-c11e-4839-acab-6cc9b8e666b8"
  },
  {
    "storeNumber": "657-11",
    "posNumber": "165",
    "storeType": "LUMBER",
    "street": "818 MT VERNON RD",
    "city": "NEWARK",
    "state": "OH",
    "zip": "43055",
    "lat": 40.079184,
    "lon": -82.414385,
    "manager": "William Kopp",
    "market": "Columbus Market",
    "uuid": "576acee1-3463-4b91-8dd2-60b97ca598d8"
  },
  {
    "storeNumber": "534-3",
    "posNumber": "534",
    "storeType": "CCP",
    "street": "3747 ST RT 5",
    "city": "NEWTON FALLS",
    "state": "OH",
    "zip": "44444",
    "lat": 41.215575,
    "lon": -80.93335,
    "manager": "Mitch Thomas",
    "market": "Northeast Ohio Market",
    "uuid": "2bc1cf7d-1229-4899-9e66-e284e0351878"
  },
  {
    "storeNumber": "4518-44",
    "posNumber": "103",
    "storeType": "LUMBER",
    "street": "11768 MAHONING AVE",
    "city": "NORTH JACKSON",
    "state": "OH",
    "zip": "44451",
    "lat": 41.100944,
    "lon": -80.872146,
    "manager": "Jeff Ohlinger",
    "market": "Youngstown Market",
    "uuid": "404b1561-e4e6-4c9f-8023-66d8ef30b966"
  },
  {
    "storeNumber": "2501-77",
    "posNumber": "139",
    "storeType": "LUMBER",
    "street": "399 MILAN AVE",
    "city": "NORWALK",
    "state": "OH",
    "zip": "44857",
    "lat": 41.272594,
    "lon": -82.60972,
    "manager": "Jack Brittain",
    "market": "Northern Ohio Lakeshore Market",
    "uuid": "d550fba4-bb2a-4520-ab36-c2de1016f755"
  },
  {
    "storeNumber": "0-0",
    "posNumber": "205",
    "storeType": "KITCHEN AND BATH",
    "street": "8730 BROOKPARK ROAD",
    "city": "PARMA",
    "state": "OH",
    "zip": "44129",
    "lat": 41.42093,
    "lon": -81.74719,
    "manager": "Stacy Reynolds",
    "market": "Northeast Ohio Market",
    "uuid": "f5a2487b-01ca-472a-928e-78ffbd50d725"
  },
  {
    "storeNumber": "161-15",
    "posNumber": "166",
    "storeType": "LUMBER",
    "street": "10271 SR 161",
    "city": "PLAIN CITY",
    "state": "OH",
    "zip": "43064",
    "lat": 40.1035,
    "lon": -83.2108,
    "manager": "David Thompson",
    "market": "Columbus Market",
    "uuid": "bea24c80-17f2-4976-8df1-d5fdbcef5aa8"
  },
  {
    "storeNumber": "53-69",
    "posNumber": "140",
    "storeType": "LUMBER",
    "street": "840 S E CATAWBA RD",
    "city": "PORT CLINTON",
    "state": "OH",
    "zip": "43452",
    "lat": 41.51003,
    "lon": -82.861035,
    "manager": "Richard Riedmaier",
    "market": "Northern Ohio Lakeshore Market",
    "uuid": "63006a0e-a3cc-455f-8b75-54ee0b881ec8"
  },
  {
    "storeNumber": "59-80",
    "posNumber": "50",
    "storeType": "LUMBER",
    "street": "4929 S R 59",
    "city": "RAVENNA",
    "state": "OH",
    "zip": "44266",
    "lat": 41.156813,
    "lon": -81.215187,
    "manager": "Zack Price",
    "market": "Portage Market",
    "uuid": "076333e8-32e9-4d1e-a75e-e3f01d18bd18"
  },
  {
    "storeNumber": "0-0",
    "posNumber": "174",
    "storeType": "CCP",
    "street": "13431 NATIONAL RD SW",
    "city": "REYNOLDSBURG",
    "state": "OH",
    "zip": "43068",
    "lat": 39.9557,
    "lon": -82.7405,
    "manager": "Shawn McIntire",
    "market": "Columbus Market",
    "uuid": "1a84d844-cd26-4d31-a7db-dca1adb4b8d8"
  },
  {
    "storeNumber": "40-0",
    "posNumber": "170",
    "storeType": "DOOR SHOP",
    "street": "13431 NATIONAL RD SW",
    "city": "REYNOLDSBURG",
    "state": "OH",
    "zip": "43068",
    "lat": 39.9557,
    "lon": -82.7405,
    "manager": "Shawn McIntire",
    "market": "Columbus Market",
    "uuid": "415f1572-e4d5-4d48-bda5-0ca640bf9b00"
  },
  {
    "storeNumber": "40-58",
    "posNumber": "167",
    "storeType": "LUMBER",
    "street": "13431 NATIONAL RD SW",
    "city": "REYNOLDSBURG",
    "state": "OH",
    "zip": "43068",
    "lat": 39.9557,
    "lon": -82.7405,
    "manager": "Shawn McIntire",
    "market": "Columbus Market",
    "uuid": "8fa14876-935a-4be6-a8a8-3ffb5d93d988"
  },
  {
    "storeNumber": "93-49",
    "posNumber": "152",
    "storeType": "LUMBER",
    "street": "4546 ROSEVILLE RD",
    "city": "ROSEVILLE",
    "state": "OH",
    "zip": "43777",
    "lat": 39.866772,
    "lon": -82.063723,
    "manager": "Shane Good (Petey)",
    "market": "Zanesville Market",
    "uuid": "c09b2865-49e7-4e54-95b7-bf99f3569b3e"
  },
  {
    "storeNumber": "3971-91",
    "posNumber": "223",
    "storeType": "LUMBER",
    "street": "3835 MANSFIELD RD",
    "city": "SHELBY",
    "state": "OH",
    "zip": "44875",
    "lat": 40.858969,
    "lon": -82.634163,
    "manager": "Curt Adelman",
    "market": "Shelby (OH)",
    "uuid": "6ba261fd-2666-4b27-a6f4-dbd5df2f3f81"
  },
  {
    "storeNumber": "91-33",
    "posNumber": "58",
    "storeType": "LUMBER",
    "street": "6199 S O M CENTER RD",
    "city": "SOLON",
    "state": "OH",
    "zip": "44139",
    "lat": 41.391438,
    "lon": -81.437716,
    "manager": "Chris Sheridan",
    "market": "Northeast Ohio Market",
    "uuid": "5eceefaa-9038-4d2f-ba6c-791477324911"
  },
  {
    "storeNumber": "68-25",
    "posNumber": "188",
    "storeType": "LUMBER",
    "street": "585 W COUNTY LINE RD",
    "city": "SPRINGFIELD",
    "state": "OH",
    "zip": "45502",
    "lat": 40.026455,
    "lon": -83.799688,
    "manager": "Rich Turnmire",
    "market": "Cincinnati-Dayton Market",
    "uuid": "74b5692a-7005-45fa-ac4a-f9af3d79259b"
  },
  {
    "storeNumber": "0-2",
    "posNumber": "496",
    "storeType": "LUMBER",
    "street": "216 E MAIN ST",
    "city": "SUGARCREEK",
    "state": "OH",
    "zip": "44681",
    "lat": 40.50194,
    "lon": -81.6391,
    "manager": "Arlen Mullet",
    "market": "East Central Ohio Market",
    "uuid": "0f3f03f2-4571-494f-a3a6-72cc03f434a8"
  },
  {
    "storeNumber": "605-0",
    "posNumber": "579",
    "storeType": "EWP",
    "street": "3477 NORTH COUNTY RD 605",
    "city": "SUNBURY",
    "state": "OH",
    "zip": "43074",
    "lat": 40.257669,
    "lon": -82.789698,
    "manager": "Ed Shanor",
    "market": "Columbus Market",
    "uuid": "63e311f6-684c-41f3-b752-343ad8c71d5a"
  },
  {
    "storeNumber": "0-0",
    "posNumber": "172",
    "storeType": "LUMBER",
    "street": "3573 NORTH COUNTY RD 605",
    "city": "SUNBURY",
    "state": "OH",
    "zip": "43074",
    "lat": 40.257669,
    "lon": -82.789698,
    "manager": "Andrew Nichols",
    "market": "Columbus Market",
    "uuid": "23bb42d2-17fa-4941-8d22-e5b9f1bac6ac"
  },
  {
    "storeNumber": "605-45",
    "posNumber": "168",
    "storeType": "LUMBER",
    "street": "3573 NORTH COUNTY RD 605",
    "city": "SUNBURY",
    "state": "OH",
    "zip": "43074",
    "lat": 40.257669,
    "lon": -82.789698,
    "manager": "Russ Wiley",
    "market": "Columbus Market",
    "uuid": "51054173-c481-471f-adc9-a4d9316a5bb8"
  },
  {
    "storeNumber": "605-0",
    "posNumber": "538",
    "storeType": "CCP",
    "street": "3477 NORTH COUNTY RD 605",
    "city": "SUNBURY",
    "state": "OH",
    "zip": "43074",
    "lat": 40.257669,
    "lon": -82.789698,
    "manager": "Ed Shanor",
    "market": "Columbus Market",
    "uuid": "023fb99a-1738-4ed4-8a19-27311ff6e65c"
  },
  {
    "storeNumber": "0-0",
    "posNumber": "712",
    "storeType": "RELOAD",
    "street": "2716 REYNOLDS RD N",
    "city": "TOLEDO",
    "state": "OH",
    "zip": "43615",
    "lat": 41.671018,
    "lon": -83.668086,
    "manager": "",
    "market": "Reloads",
    "uuid": "830f8605-1a1b-4e5d-a68e-9ed16249526e"
  },
  {
    "storeNumber": "0-0",
    "posNumber": "306",
    "storeType": "KITCHEN AND BATH",
    "street": "2716 REYNOLDS RD N",
    "city": "TOLEDO",
    "state": "OH",
    "zip": "43615",
    "lat": 41.67144,
    "lon": -83.66686,
    "manager": "Jason Fischer",
    "market": "National Kitchen & Bath",
    "uuid": "424bc757-b8cf-4621-9e69-ca0318da9e9c"
  },
  {
    "storeNumber": "20-14",
    "posNumber": "133",
    "storeType": "LUMBER",
    "street": "2716 REYNOLDS RD N",
    "city": "TOLEDO",
    "state": "OH",
    "zip": "43615",
    "lat": 41.671018,
    "lon": -83.668086,
    "manager": "Dave Smithmyer",
    "market": "Toledo Market",
    "uuid": "4406cdb4-4cfb-4dd9-990c-35577ac0dac1"
  },
  {
    "storeNumber": "20-5",
    "posNumber": "134",
    "storeType": "KITCHEN AND BATH",
    "street": "2714 REYNOLDS RD N",
    "city": "TOLEDO",
    "state": "OH",
    "zip": "43615",
    "lat": 41.670761,
    "lon": -83.668079,
    "manager": "Rick Maxfield",
    "market": "Toledo Market",
    "uuid": "ff5fcfeb-d08b-45fc-857b-c73bc577cef6"
  },
  {
    "storeNumber": "6-64",
    "posNumber": "145",
    "storeType": "CLEARANCE",
    "street": "3020 LIBERTY AVE",
    "city": "VERMILION",
    "state": "OH",
    "zip": "44089",
    "lat": 41.426087,
    "lon": -82.305596,
    "manager": "Cliff Riley",
    "market": "Clearance Center",
    "uuid": "9f72d561-291f-4cd9-8bc2-1392c132a5b5"
  },
  {
    "storeNumber": "6-51",
    "posNumber": "146",
    "storeType": "CLEARANCE",
    "street": "3026 LIBERTY AVE",
    "city": "VERMILION",
    "state": "OH",
    "zip": "44089",
    "lat": 41.426087,
    "lon": -82.305596,
    "manager": "Paul McKenna",
    "market": "Clearance Center",
    "uuid": "f5c12e8b-d58f-433d-b044-78cd6ebac00d"
  },
  {
    "storeNumber": "22-20",
    "posNumber": "182",
    "storeType": "LUMBER",
    "street": "4994 US 22 NW",
    "city": "WASHINGTON COURT HOUSE",
    "state": "OH",
    "zip": "43160",
    "lat": 39.516776,
    "lon": -83.523664,
    "manager": "Wendy Whitaker",
    "market": "Chillicothe-Piketon Market",
    "uuid": "52c661a1-ef42-4862-ad8b-36a791825f83"
  },
  {
    "storeNumber": "22-11",
    "posNumber": "183",
    "storeType": "LUMBER",
    "street": "4974 US 22 NW",
    "city": "WASHINGTON COURT HOUSE",
    "state": "OH",
    "zip": "43160",
    "lat": 39.523799,
    "lon": -83.483429,
    "manager": "Josh Clifton",
    "market": "Chillicothe-Piketon Market",
    "uuid": "4b904fcb-41bf-499e-a686-9d93c6bbb98e"
  },
  {
    "storeNumber": "41-73",
    "posNumber": "185",
    "storeType": "LUMBER",
    "street": "11856 ST RT 41",
    "city": "WEST UNION",
    "state": "OH",
    "zip": "45693",
    "lat": 38.787752,
    "lon": -83.554719,
    "manager": "Travis Wilson",
    "market": "Chillicothe-Piketon Market",
    "uuid": "632e0fe7-de19-4ec4-bce0-0680c0171c5b"
  },
  {
    "storeNumber": "0-0",
    "posNumber": "173",
    "storeType": "HUB",
    "street": "173 HEATHERDOWN DRIVE",
    "city": "WESTERVILLE",
    "state": "OH",
    "zip": "43081",
    "lat": 40.104628,
    "lon": -82.930156,
    "manager": "Brady Kingry",
    "market": "Columbus Market",
    "uuid": "1d423f1b-aaea-4c51-a3ab-60dd5ad446a8"
  },
  {
    "storeNumber": "81-12",
    "posNumber": "381",
    "storeType": "LUMBER",
    "street": "1840 HARRISBURG PIKE",
    "city": "CARLISLE",
    "state": "PA",
    "zip": "17015",
    "lat": 40.2338,
    "lon": -77.1201,
    "manager": "Nick Geppi",
    "market": "BWE Market",
    "uuid": "ebcbea9a-eac8-42e6-92ae-9cce7956e278"
  },
  {
    "storeNumber": "0-0",
    "posNumber": "703",
    "storeType": "HUB",
    "street": "870 S MAIN ST",
    "city": "CHAMBERSBURG",
    "state": "PA",
    "zip": "17201",
    "lat": 39.92367,
    "lon": -77.66446,
    "manager": "Derek Jordan",
    "market": "Hanover Door Shop",
    "uuid": "8591dd28-e26d-4072-a2db-27e492472760"
  },
  {
    "storeNumber": "0-0",
    "posNumber": "591",
    "storeType": "RELOAD",
    "street": "2155 WAYNE RD",
    "city": "CHAMBERSBURG",
    "state": "PA",
    "zip": "17202",
    "lat": 39.90047,
    "lon": -77.64305,
    "manager": "",
    "market": "Mid Atlantic Reload",
    "uuid": "f172e05b-adfe-49a0-a343-e6e285bc8dab"
  },
  {
    "storeNumber": "0-0",
    "posNumber": "553",
    "storeType": "EWP",
    "street": "2155 WAYNE RD",
    "city": "CHAMBERSBURG",
    "state": "PA",
    "zip": "17202",
    "lat": 39.900469,
    "lon": -77.643052,
    "manager": "",
    "market": "BWE Market",
    "uuid": "d68ce164-5106-4bc2-b190-1fbea2f350c7"
  },
  {
    "storeNumber": "316-6",
    "posNumber": "380",
    "storeType": "LUMBER",
    "street": "2155 WAYNE RD",
    "city": "CHAMBERSBURG",
    "state": "PA",
    "zip": "17202",
    "lat": 39.900469,
    "lon": -77.643052,
    "manager": "Derek Jordan",
    "market": "BWE Market",
    "uuid": "313d2f3c-c909-4139-bdc0-e92d3e283f68"
  },
  {
    "storeNumber": "3226-23",
    "posNumber": "97",
    "storeType": "LUMBER",
    "street": "12925 CONNEAUT LAKE RD",
    "city": "CONNEAUT LAKE",
    "state": "PA",
    "zip": "16316",
    "lat": 41.609305,
    "lon": -80.277303,
    "manager": "Buck Nagle",
    "market": "Allegheny Market",
    "uuid": "7ff554fe-cc93-43b7-9aca-09a8f3857e6b"
  },
  {
    "storeNumber": "230-10",
    "posNumber": "386",
    "storeType": "LUMBER",
    "street": "2128 S MARKET ST",
    "city": "ELIZABETHTOWN",
    "state": "PA",
    "zip": "17022",
    "lat": 40.133962,
    "lon": -76.572314,
    "manager": "Kyle Lucas",
    "market": "BWE Market",
    "uuid": "6e3a469f-67f3-4838-a11f-9360b39680c8"
  },
  {
    "storeNumber": "20-3",
    "posNumber": "63",
    "storeType": "LUMBER",
    "street": "4710 BUFFALO RD",
    "city": "ERIE",
    "state": "PA",
    "zip": "16510",
    "lat": 42.149695,
    "lon": -79.996032,
    "manager": "Nathan Spears",
    "market": "Erie Market",
    "uuid": "d28d622a-56b5-4b85-997e-84c889c50493"
  },
  {
    "storeNumber": "98-4",
    "posNumber": "65",
    "storeType": "LUMBER",
    "street": "2801 W AVONIA RD (RT 98)",
    "city": "FAIRVIEW",
    "state": "PA",
    "zip": "16415",
    "lat": 42.038,
    "lon": -80.261,
    "manager": "Nathan Spears",
    "market": "Erie Market",
    "uuid": "31dac50c-be2e-4df6-8a9a-7968a94c02d3"
  },
  {
    "storeNumber": "0-0",
    "posNumber": "595",
    "storeType": "RELOAD",
    "street": "8 BARNHART DRIVE",
    "city": "HANOVER",
    "state": "PA",
    "zip": "17331",
    "lat": 39.818778,
    "lon": -76.964846,
    "manager": "",
    "market": "Hanover Door Shop",
    "uuid": "a4745c92-b4f5-4afe-82e2-0c441805d35f"
  },
  {
    "storeNumber": "0-0",
    "posNumber": "389",
    "storeType": "DOOR SHOP",
    "street": "8 BARNHART DRIVE",
    "city": "HANOVER",
    "state": "PA",
    "zip": "17331",
    "lat": 39.818778,
    "lon": -76.964846,
    "manager": "Derek Bettencourt",
    "market": "Hanover Door Shop",
    "uuid": "670d422f-a6c8-4a23-8d59-a1332ea4dc99"
  },
  {
    "storeNumber": "340-0",
    "posNumber": "565",
    "storeType": "EWP",
    "street": "2275 OLD PHILA PIKE",
    "city": "LANCASTER",
    "state": "PA",
    "zip": "17602",
    "lat": 40.039881,
    "lon": -76.21909,
    "manager": "Stan Foster",
    "market": "BWE Market",
    "uuid": "5ac03249-1fdc-441e-95d0-e06e639c4e5a"
  },
  {
    "storeNumber": "340-5",
    "posNumber": "388",
    "storeType": "LUMBER",
    "street": "2275 OLD PHILA PIKE",
    "city": "LANCASTER",
    "state": "PA",
    "zip": "17602",
    "lat": 40.039881,
    "lon": -76.21909,
    "manager": "Trevor Goodman",
    "market": "BWE Market",
    "uuid": "1fe0d3f8-ea4c-495f-857a-fbcfe3a84ea3"
  },
  {
    "storeNumber": "79-8",
    "posNumber": "372",
    "storeType": "LUMBER",
    "street": "675 PIKE ST",
    "city": "MEADOW LANDS",
    "state": "PA",
    "zip": "15347",
    "lat": 40.213246,
    "lon": -80.226154,
    "manager": "Chad Byrum",
    "market": "Pittsburgh Market",
    "uuid": "c2b0a837-0966-4f54-8a50-77aa411288db"
  },
  {
    "storeNumber": "0-0",
    "posNumber": "707",
    "storeType": "EWP",
    "street": "418 S CASCADE ST",
    "city": "NEW CASTLE",
    "state": "PA",
    "zip": "16101",
    "lat": 40.99578,
    "lon": -80.32157,
    "manager": "",
    "market": "Pittsburgh Market",
    "uuid": "0a6c830b-1985-4c63-877d-0f06325fa380"
  },
  {
    "storeNumber": "422-22",
    "posNumber": "108",
    "storeType": "LUMBER",
    "street": "3005 NEW BUTLER RD",
    "city": "NEW CASTLE",
    "state": "PA",
    "zip": "16101",
    "lat": 40.977319,
    "lon": -80.28402,
    "manager": "Dan Bernice",
    "market": "Pittsburgh Market",
    "uuid": "4c13888c-533d-4ca2-9a95-6a90d28d7415"
  },
  {
    "storeNumber": "200-716",
    "posNumber": "716",
    "storeType": "RELOAD",
    "street": "17 MEADOW LANE",
    "city": "PARADISE",
    "state": "PA",
    "zip": "17562",
    "lat": 40.010005,
    "lon": -76.121173,
    "manager": "",
    "market": "BWE Market",
    "uuid": "5912b630-bed5-4c12-ab7e-6fb45bec123b"
  },
  {
    "storeNumber": "8-21",
    "posNumber": "92",
    "storeType": "LUMBER",
    "street": "1553 ALLEGHENY BLVD",
    "city": "RENO",
    "state": "PA",
    "zip": "16343",
    "lat": 41.415285,
    "lon": -79.765638,
    "manager": "Mike Miller",
    "market": "Allegheny Market",
    "uuid": "3bbbacb8-7c93-4439-a73e-5d037c284046"
  },
  {
    "storeNumber": "322-11",
    "posNumber": "93",
    "storeType": "LUMBER",
    "street": "731 MAIN ST",
    "city": "STRATTANVILLE",
    "state": "PA",
    "zip": "16258",
    "lat": 41.202927,
    "lon": -79.331023,
    "manager": "Mike Morris",
    "market": "Western PA",
    "uuid": "3ca6d6dc-3c5b-4b87-976f-3dc0f115e9f4"
  },
  {
    "storeNumber": "62-7",
    "posNumber": "95",
    "storeType": "LUMBER",
    "street": "116 PRESTON RD",
    "city": "WARREN",
    "state": "PA",
    "zip": "16365",
    "lat": 41.838676,
    "lon": -79.199453,
    "manager": "Brian Kerstin",
    "market": "Allegheny Market",
    "uuid": "bcd6c3e8-7c4c-40fe-883a-22deb41da494"
  },
  {
    "storeNumber": "900-435",
    "posNumber": "435",
    "storeType": "LUMBER",
    "street": "2440 CLEMENTS FERRY ROAD",
    "city": "CHARLESTON",
    "state": "SC",
    "zip": "29492",
    "lat": 32.90011,
    "lon": -79.92149,
    "manager": "",
    "market": "Charleston Market",
    "uuid": "2e94f637-693f-4763-8fcc-390b148cacf1"
  },
  {
    "storeNumber": "0-0",
    "posNumber": "429",
    "storeType": "LUMBER",
    "street": "1325 VETERANS RD",
    "city": "COLUMBIA",
    "state": "SC",
    "zip": "29209",
    "lat": 33.952367,
    "lon": -80.961181,
    "manager": "Gareth Rumley",
    "market": "Columbia Market",
    "uuid": "fb6d07d9-0ffc-4da3-9195-47a56ccb5ca7"
  },
  {
    "storeNumber": "123-2",
    "posNumber": "422",
    "storeType": "LUMBER",
    "street": "4588 CALHOUN MEMORIAL HWY",
    "city": "EASLEY",
    "state": "SC",
    "zip": "29640",
    "lat": 34.828789,
    "lon": -82.535541,
    "manager": "",
    "market": "Greenville Market",
    "uuid": "6af21879-5b58-4033-a3ba-2506a37d3475"
  },
  {
    "storeNumber": "901-486",
    "posNumber": "486",
    "storeType": "DOOR SHOP",
    "street": "305 WEST MYRTLE BEACH HWY",
    "city": "JOHNSONVILLE",
    "state": "SC",
    "zip": "29555",
    "lat": 33.882383,
    "lon": -79.46092,
    "manager": "Tim Taylor",
    "market": "Myrtle Beach Market",
    "uuid": "1642a697-f202-42d6-be0f-77e75c447ac2"
  },
  {
    "storeNumber": "0-0",
    "posNumber": "546",
    "storeType": "CCP",
    "street": "305 WEST MYRTLE BEACH HWY",
    "city": "JOHNSONVILLE",
    "state": "SC",
    "zip": "29555",
    "lat": 33.882383,
    "lon": -79.46092,
    "manager": "Terry Dale",
    "market": "Myrtle Beach Market",
    "uuid": "ea03b43b-6c40-4d7f-a07d-262d923f250c"
  },
  {
    "storeNumber": "901-487",
    "posNumber": "487",
    "storeType": "LUMBER",
    "street": "305 WEST MYRTLE BEACH HWY",
    "city": "JOHNSONVILLE",
    "state": "SC",
    "zip": "29555",
    "lat": 33.882383,
    "lon": -79.46092,
    "manager": "Tim Taylor",
    "market": "Myrtle Beach Market",
    "uuid": "2246fac6-9e1f-4b70-9191-34fc66aeb764"
  },
  {
    "storeNumber": "274-1",
    "posNumber": "423",
    "storeType": "LUMBER",
    "street": "126 HANDS MILL HWY",
    "city": "ROCK HILL",
    "state": "SC",
    "zip": "29732",
    "lat": 34.991925,
    "lon": -81.100661,
    "manager": "Rob Layton",
    "market": "Charlotte/Triad Market",
    "uuid": "e6dbc761-f4ff-480c-a2cc-4093050f21d0"
  },
  {
    "storeNumber": "0-0",
    "posNumber": "443",
    "storeType": "KITCHEN AND BATH",
    "street": "2766 WILMA RUDOLPH  BLVD",
    "city": "CLARKSVILLE",
    "state": "TN",
    "zip": "37040",
    "lat": 36.58619,
    "lon": -87.296722,
    "manager": "Marc Huther",
    "market": "Clarksville Market",
    "uuid": "5ca6c6e9-7e06-44f8-b331-98900ca4ee8c"
  },
  {
    "storeNumber": "305-7",
    "posNumber": "445",
    "storeType": "LUMBER",
    "street": "444 DICK BUCHANAN ST",
    "city": "LA VERGNE",
    "state": "TN",
    "zip": "37086",
    "lat": 36.021129,
    "lon": -86.553934,
    "manager": "Scott Dayton",
    "market": "Nashville Market",
    "uuid": "996a6dae-6669-4b23-a3a4-1e1949f158f2"
  },
  {
    "storeNumber": "445-7",
    "posNumber": "584",
    "storeType": "EWP",
    "street": "444 DICK BUCHANAN ST",
    "city": "LA VERGNE",
    "state": "TN",
    "zip": "37086",
    "lat": 36.021129,
    "lon": -86.553934,
    "manager": "Scott Dayton",
    "market": "Nashville Market",
    "uuid": "53d4af45-15e7-4588-9c9c-c2263aa446fe"
  },
  {
    "storeNumber": "0-0",
    "posNumber": "1445",
    "storeType": "INSTALLED",
    "street": "444 DICK BUCHANAN ST",
    "city": "LA VERGNE",
    "state": "TN",
    "zip": "37086",
    "lat": 36.021129,
    "lon": -86.553934,
    "manager": "Scott Dayton",
    "market": "Nashville Market",
    "uuid": "23976cc9-4991-499d-87ab-8fe6d85dbce2"
  },
  {
    "storeNumber": "900-446",
    "posNumber": "446",
    "storeType": "LABOR HUB",
    "street": "444C DICK BUCHANAN ST",
    "city": "LA VERGNE",
    "state": "TN",
    "zip": "37086",
    "lat": 36.021129,
    "lon": -86.553934,
    "manager": "Dave King",
    "market": "Nashville Market",
    "uuid": "88b6a3d4-d205-44cb-9e1c-4af0eb9c6eb4"
  },
  {
    "storeNumber": "0-0",
    "posNumber": "444",
    "storeType": "KITCHEN AND BATH",
    "street": "516 FONTANA DRIVE",
    "city": "NASHVILLE",
    "state": "TN",
    "zip": "37204",
    "lat": 36.110143,
    "lon": -86.756227,
    "manager": "Marc Huther",
    "market": "Nashville Market",
    "uuid": "7c778b8e-5731-4606-aa35-45aca153a9ed"
  },
  {
    "storeNumber": "0-0",
    "posNumber": "702",
    "storeType": "HUB",
    "street": "12144 WASHINGTON HIGHWAY",
    "city": "ASHLAND",
    "state": "VA",
    "zip": "23005",
    "lat": 37.73513,
    "lon": -77.469686,
    "manager": "Wayne Weeden",
    "market": "Hanover Door Shop",
    "uuid": "2b1eed9b-3763-4183-9728-d73e59542728"
  },
  {
    "storeNumber": "0-0",
    "posNumber": "705",
    "storeType": "EWP",
    "street": "12144 WASHINGTON HIGHWAY",
    "city": "ASHLAND",
    "state": "VA",
    "zip": "23005",
    "lat": 37.73513,
    "lon": -77.469686,
    "manager": "Wayne Weeden",
    "market": "BWE Market",
    "uuid": "9da49fe8-c502-44f2-be8f-0d56e5ec747c"
  },
  {
    "storeNumber": "0-0",
    "posNumber": "1570",
    "storeType": "EWP",
    "street": "3300 BUSINESS CENTER DRIVE",
    "city": "CHESAPEAKE",
    "state": "VA",
    "zip": "23323",
    "lat": 36.788614,
    "lon": -76.351066,
    "manager": "",
    "market": "VA Beach/Chesapeake Market",
    "uuid": "5e1b1d8a-7a9d-4649-a075-83276b852a88"
  },
  {
    "storeNumber": "805-1",
    "posNumber": "1470",
    "storeType": "INSTALLED",
    "street": "3300 BUSINESS CENTER DRIVE",
    "city": "CHESAPEAKE",
    "state": "VA",
    "zip": "23323",
    "lat": 36.788614,
    "lon": -76.351066,
    "manager": "Brett Paciulli",
    "market": "VA Beach/Chesapeake Market",
    "uuid": "d423fbaf-a1f3-4edf-9e3a-85b3836827b0"
  },
  {
    "storeNumber": "805-1",
    "posNumber": "470",
    "storeType": "LUMBER",
    "street": "3300 BUSINESS CENTER DRIVE",
    "city": "CHESAPEAKE",
    "state": "VA",
    "zip": "23323",
    "lat": 36.788614,
    "lon": -76.351066,
    "manager": "",
    "market": "VA Beach/Chesapeake Market",
    "uuid": "fd694118-06c5-4315-a54c-cdd5fff3d102"
  },
  {
    "storeNumber": "805-5",
    "posNumber": "471",
    "storeType": "DOOR SHOP",
    "street": "3300 BUSINESS CENTER DRIVE",
    "city": "CHESAPEAKE",
    "state": "VA",
    "zip": "23323",
    "lat": 36.788614,
    "lon": -76.351066,
    "manager": "",
    "market": "VA Beach/Chesapeake Market",
    "uuid": "e0668ab8-675b-4e33-bba5-b2c8dca095cc"
  },
  {
    "storeNumber": "805-6",
    "posNumber": "535",
    "storeType": "CCP",
    "street": "3300 BUSINESS CENTER DRIVE",
    "city": "CHESAPEAKE",
    "state": "VA",
    "zip": "23323",
    "lat": 36.788614,
    "lon": -76.351066,
    "manager": "",
    "market": "VA Beach/Chesapeake Market",
    "uuid": "8c11d070-b45d-496f-a324-42929660395a"
  },
  {
    "storeNumber": "0-0",
    "posNumber": "1574",
    "storeType": "EWP",
    "street": "14500 EMANCIPATION HWY",
    "city": "CHESTER",
    "state": "VA",
    "zip": "23831",
    "lat": 37.325166,
    "lon": -77.409373,
    "manager": "",
    "market": "VA Beach/Chesapeake Market",
    "uuid": "368a9cde-c03c-409d-971b-2187ad6aaba9"
  },
  {
    "storeNumber": "0-0",
    "posNumber": "740",
    "storeType": "DOOR SHOP",
    "street": "184 PLEASANT SHADE DRIVE",
    "city": "EMPORIA",
    "state": "VA",
    "zip": "23847",
    "lat": 36.707513,
    "lon": -77.56569,
    "manager": "",
    "market": "",
    "uuid": "73f6dfb8-7fd4-4716-bbfd-4d0282372d57"
  },
  {
    "storeNumber": "0-0",
    "posNumber": "587",
    "storeType": "RELOAD",
    "street": "",
    "city": "FREDERICKSBURG",
    "state": "VA",
    "zip": "",
    "lat": 38.27652,
    "lon": -77.464493,
    "manager": "",
    "market": "BWE Market",
    "uuid": "8450a203-7947-4d0e-8fba-6d21a26a294c"
  },
  {
    "storeNumber": "800-464",
    "posNumber": "464",
    "storeType": "LUMBER",
    "street": "11631 SHANNON DR",
    "city": "FREDERICKSBURG",
    "state": "VA",
    "zip": "22408",
    "lat": 38.277071,
    "lon": -77.463179,
    "manager": "Richard Thompson",
    "market": "BWE Market",
    "uuid": "32a48d46-5643-458b-8e50-eca22fceec9a"
  },
  {
    "storeNumber": "805-4",
    "posNumber": "472",
    "storeType": "LUMBER",
    "street": "814 CHAPMAN WAY",
    "city": "NEWPORT NEWS",
    "state": "VA",
    "zip": "23608",
    "lat": 37.168212,
    "lon": -76.53522,
    "manager": "",
    "market": "VA Beach/Chesapeake Market",
    "uuid": "c25b3ab7-dfa0-408e-82c1-7b72c799a5f3"
  },
  {
    "storeNumber": "0-0",
    "posNumber": "475",
    "storeType": "LUMBER",
    "street": "2890 SEVEN HILLS BLVD",
    "city": "RICHMOND",
    "state": "VA",
    "zip": "23231",
    "lat": 37.491845,
    "lon": -77.342596,
    "manager": "",
    "market": "Richmond Market",
    "uuid": "9806714a-6074-448e-977a-0e76799352a3"
  },
  {
    "storeNumber": "805-7",
    "posNumber": "473",
    "storeType": "LUMBER",
    "street": "500 LASKIN ROAD",
    "city": "VIRGINIA BEACH",
    "state": "VA",
    "zip": "23451",
    "lat": 36.85881,
    "lon": -75.98218,
    "manager": "",
    "market": "VA Beach/Chesapeake Market",
    "uuid": "e65807e5-ab23-427f-ad9e-87199027d08b"
  },
  {
    "storeNumber": "0-0",
    "posNumber": "1684",
    "storeType": "KITCHEN AND BATH",
    "street": "1961 SOUTH LOUDOUN ST",
    "city": "WINCHESTER",
    "state": "VA",
    "zip": "22601",
    "lat": 39.164077,
    "lon": -78.173196,
    "manager": "",
    "market": "Winchester Market",
    "uuid": "64dcb3ea-0813-4be9-9404-adeba1cd3735"
  },
  {
    "storeNumber": "50-9",
    "posNumber": "461",
    "storeType": "LUMBER",
    "street": "1961 SOUTH LOUDOUN ST",
    "city": "WINCHESTER",
    "state": "VA",
    "zip": "22601",
    "lat": 39.164077,
    "lon": -78.173196,
    "manager": "Gary Trenary",
    "market": "Winchester Market",
    "uuid": "2420105c-5825-43cb-bd35-8b48b3610a95"
  },
  {
    "storeNumber": "8132-4",
    "posNumber": "462",
    "storeType": "LUMBER",
    "street": "5443 TABLER STATION RD",
    "city": "INWOOD",
    "state": "WV",
    "zip": "25428",
    "lat": 39.4004,
    "lon": -78.0095,
    "manager": "Gary Trenary",
    "market": "Winchester Market",
    "uuid": "5600bb5d-9919-4b34-9eef-48e4c7c9d8da"
  },
  {
    "storeNumber": "1-1",
    "posNumber": "111",
    "storeType": "LUMBER",
    "street": "195 NORTH STATE ROUTE 2",
    "city": "NEW MARTINSVILLE",
    "state": "WV",
    "zip": "26155",
    "lat": 39.671129,
    "lon": -80.857304,
    "manager": "Bob Thompson",
    "market": "West Virginia Market",
    "uuid": "41802ce6-a009-4b97-87f6-61459ac91b8e"
  },
  {
    "storeNumber": "3-2",
    "posNumber": "112",
    "storeType": "LUMBER",
    "street": "6001 PIKE ST",
    "city": "PARKERSBURG",
    "state": "WV",
    "zip": "26101",
    "lat": 39.215206,
    "lon": -81.544647,
    "manager": "Adam Cooper",
    "market": "West Virginia Market",
    "uuid": "e522579e-2688-4f88-9cd4-2b990fc3139c"
  },
  {
    "storeNumber": "0-0",
    "posNumber": "596",
    "storeType": "RELOAD",
    "street": "1 CARTER POINT",
    "city": "RIPLEY",
    "state": "WV",
    "zip": "25271",
    "lat": 38.82124,
    "lon": -81.73158,
    "manager": "",
    "market": "West Virginia Market",
    "uuid": "a87a121f-9624-43c0-ab3a-9d30e6915054"
  },
  {
    "storeNumber": "3377-3",
    "posNumber": "113",
    "storeType": "LUMBER",
    "street": "1 CARTER POINT",
    "city": "RIPLEY",
    "state": "WV",
    "zip": "25271",
    "lat": 38.821241,
    "lon": -81.731575,
    "manager": "Mark Freed",
    "market": "West Virginia Market",
    "uuid": "e968a390-9ba0-42c4-b879-e04ca54d8e24"
  }
]